lat,lon,place,name,name:en,GNS:id,GNS:dsg_code,GNS:dsg_string,source
22.683333,121.5,hamlet,,Liumagou,-2633499,PPL,populated place,GNS
22.671111,121.506667,hamlet,觀音洞,Guanyindong,-2632729,PPL,populated place,GNS
22.656944,121.500556,hamlet,海參坪,Haishenping,-2629886,PPL,populated place,GNS
22.674167,121.471944,hamlet,中寮,Zhongliao,-2628874,PPL,populated place,GNS
22.674167,121.479444,hamlet,柴口,Chaikou,-2626986,PPL,populated place,GNS
22.674444,121.496389,hamlet,將軍岩,Jiangjunyan,-2627422,PPL,populated place,GNS
23.127255,121.379117,hamlet,大坪頂,Dapingding,10027440,PPL,populated place,GNS
23.12546,121.37152,hamlet,富台,Futai,10027441,PPL,populated place,GNS
23.122339,121.406893,hamlet,三仙臺,Sanxiantai,10027450,PPL,populated place,GNS
22.662222,121.503611,hamlet,白角,Baijiao,6431167,PPL,populated place,GNS
22.646944,121.498333,hamlet,溫泉,Wenquan,6431169,PPL,populated place,GNS
22.636944,121.503056,hamlet,旭海,Xuhai,6431170,PPL,populated place,GNS
22.650556,121.500833,hamlet,尾湖,Weihu,6431171,PPL,populated place,GNS
22.638333,121.5,hamlet,白沙,Baisha,6431173,PPL,populated place,GNS
23.397317,121.478412,hamlet,八仙洞,Baxiandong,10035478,PPL,populated place,GNS
23.315144,121.45158,hamlet,崎腳,Qijiao,10035515,PPL,populated place,GNS
22.322222,120.891111,hamlet,圓山,Yuanshan,-2640815,PPL,populated place,GNS
22.336111,120.881111,hamlet,大湖,Dahu,-2637778,PPL,populated place,GNS
23.380501,121.471517,hamlet,大俱來,Dajulai,-2637701,PPL,populated place,GNS
22.45,120.933333,hamlet,,Dazhugaoshan,-2637698,PPL,populated place,GNS
22.443611,120.938611,hamlet,大竹,Dazhu,-2637671,PPL,populated place,GNS
23.223867,121.414474,hamlet,,Danman,-2638231,PPL,populated place,GNS
22.384722,120.91,hamlet,大鳥,Daniao,-2638215,PPL,populated place,GNS
22.968056,121.303611,hamlet,東河,Donghe,-2639591,PPL,populated place,GNS
22.294167,120.885833,hamlet,達仁,Daren,-2637964,PPL,populated place,GNS
22.604444,121.001667,hamlet,德其里,Deqili,-2638679,PPL,populated place,GNS
22.6125,121.004444,hamlet,太麻里,Taimali,-2637860,PPL,populated place,GNS
22.555556,120.966944,hamlet,大武窟,Dawuku,-2638644,PPL,populated place,GNS
22.362778,120.906944,hamlet,大武,Dawu,-2638636,PPL,populated place,GNS
23.176802,121.40088,hamlet,石雨傘,Shiyusan,-2637090,PPL,populated place,GNS
23.330022,121.462066,hamlet,長光,Changguang,-2636808,PPL,populated place,GNS
23.121199,121.401695,hamlet,三仙,Sanxian,-2636118,PPL,populated place,GNS
23.357962,121.468631,hamlet,三間屋,Sanjianwu,-2636056,PPL,populated place,GNS
23.34188,121.463645,hamlet,真柄,Zhenbing,-2636050,PPL,populated place,GNS
23.081866,121.353332,hamlet,八邊,Babian,-2635292,PPL,populated place,GNS
23.401835,121.48019,hamlet,水母丁,Shuimuding,-2637247,PPL,populated place,GNS
23.129392,121.400519,hamlet,白守蓮,Baishoulian,-2635112,PPL,populated place,GNS
22.339722,120.890833,hamlet,尚武,Shangwu,-2636481,PPL,populated place,GNS
22.514167,120.955,hamlet,上多良,Shangduoliang,-2636473,PPL,populated place,GNS
22.485278,120.944722,hamlet,上大溪,Shangdaxi,-2636457,PPL,populated place,GNS
23.15195,121.396513,hamlet,美山,Meishan,-2634186,PPL,populated place,GNS
23.149463,121.398227,hamlet,微沙鹿,Weishalu,-2634185,PPL,populated place,GNS
22.263056,120.8825,hamlet,舊南田,Jiunantian,-2634640,PPL,populated place,GNS
22.506944,120.956111,hamlet,下多良,Xiaduoliang,-2633795,PPL,populated place,GNS
22.308889,120.888889,hamlet,南興,Nanxing,-2634446,PPL,populated place,GNS
23.041008,121.339065,hamlet,豐泉,Fengquan,-2629503,PPL,populated place,GNS
23.075546,121.350369,hamlet,和平,Heping,-2630036,PPL,populated place,GNS
22.525278,120.952778,hamlet,下多良,Xiaduoliang,-2630746,PPL,populated place,GNS
22.461667,120.939444,hamlet,大溪,Daxi,-2630725,PPL,populated place,GNS
23.012939,121.323287,hamlet,新村,Xincun,-2631397,PPL,populated place,GNS
22.992983,121.314828,hamlet,小馬,Xiaoma,-2630594,PPL,populated place,GNS
23.159775,121.401475,hamlet,小港,Xiaogang,-2630562,PPL,populated place,GNS
22.575833,120.989167,hamlet,新香蘭,Xinxianglan,-2630482,PPL,populated place,GNS
23.028202,121.331617,hamlet,都歷,Duli,-2631203,PPL,populated place,GNS
23.003442,121.315694,hamlet,小馬,Xiaoma,-2631202,PPL,populated place,GNS
23.049265,121.337368,hamlet,豐田,Fengtian,-2629599,PPL,populated place,GNS
23.102937,121.379087,hamlet,成功,Chenggong,-2627221,PPL,populated place,GNS
23.115488,121.400484,hamlet,基翬,Jihui,-2627889,PPL,populated place,GNS
23.109998,121.385594,hamlet,芝田,Zhitian,-2627876,PPL,populated place,GNS
23.416093,121.484156,hamlet,樟原,Zhangyuan,-2627105,PPL,populated place,GNS
22.793809,121.192142,hamlet,集岡,Jigang,-2627863,PPL,populated place,GNS
23.316651,121.456632,hamlet,長濱,Changbin,-2627069,PPL,populated place,GNS
23.335086,121.463159,hamlet,城子埔,Chengzibu,-2627052,PPL,populated place,GNS
22.586389,120.994167,hamlet,舊香蘭,Jiuxianglan,-2628313,PPL,populated place,GNS
22.453056,120.923889,hamlet,愛國浦,Aiguopu,-2626842,PPL,populated place,GNS
23.066446,121.3471,hamlet,嘉平,Jiaping,-2627521,PPL,populated place,GNS
22.958889,121.289722,hamlet,金樽,Jinzun,-2628212,PPL,populated place,GNS
22.5325,120.965,hamlet,金崙,Jinlun,-2628161,PPL,populated place,GNS
22.430556,120.933333,hamlet,富山,Fushan,-2627399,PPL,populated place,GNS
23.409052,121.482506,hamlet,加錄社,Jialushe,-2627383,PPL,populated place,GNS
22.416389,120.923056,hamlet,加津林,Jiajinlin,-2627312,PPL,populated place,GNS
23.065483,121.349905,hamlet,加只來,Jiazhilai,-2627309,PPL,populated place,GNS
22.722778,121.129444,hamlet,馬東,Madong,6379246,PPL,populated place,GNS
22.400556,120.908056,hamlet,獅子獅,Shizishi,6418678,PPL,populated place,GNS
22.365278,120.900278,hamlet,和平,Heping,6418690,PPL,populated place,GNS
22.340833,120.895833,hamlet,客莊,Kezhuang,6418692,PPL,populated place,GNS
22.421667,120.931111,hamlet,富南,Funan,6418695,PPL,populated place,GNS
22.333056,120.878056,hamlet,西勢湖,Xishihu,6418696,PPL,populated place,GNS
22.345278,120.880278,hamlet,古莊,Guzhuang,6418697,PPL,populated place,GNS
22.33,120.890833,hamlet,南嘉,Nanjia,6418698,PPL,populated place,GNS
22.286111,120.889167,hamlet,上南田,Shangnantian,6418701,PPL,populated place,GNS
22.276944,120.89,hamlet,下南田,Xianantian,6418702,PPL,populated place,GNS
22.344167,120.888611,hamlet,麻園,Mayuan,6418721,PPL,populated place,GNS
22.986667,121.313056,hamlet,隧道口,Suidaokou,6418738,PPL,populated place,GNS
22.993889,121.315,hamlet,小馬,Xiaoma,6418739,PPL,populated place,GNS
22.973611,121.305833,hamlet,北東河,Beidonghe,6418740,PPL,populated place,GNS
22.964167,121.300278,hamlet,南東河,Nandonghe,6418761,PPL,populated place,GNS
22.604167,120.9975,hamlet,正興,Zhengxing,6433385,PPL,populated place,GNS
22.543889,120.966389,hamlet,富山,Fushan,6433391,PPL,populated place,GNS
22.5675,120.975833,hamlet,松子澗,Songzijian,6433412,PPL,populated place,GNS
22.531667,120.961111,hamlet,賓茂,Binmao,6433433,PPL,populated place,GNS
23.216359,121.408903,hamlet,堺橋,Jieqiao,10027318,PPL,populated place,GNS
23.179264,121.397566,hamlet,男人石,Nanrenshi,10027321,PPL,populated place,GNS
23.169476,121.403403,hamlet,玉水橋,Yushuiqiao,10027356,PPL,populated place,GNS
22.666111,121.508889,hamlet,柚子湖,Youzihu,-2641081,PPL,populated place,GNS
22.666667,121.466667,hamlet,,Yugang,-2640933,PPL,populated place,GNS
22.35,121.366667,hamlet,,Shanfucun,-2636372,PPL,populated place,GNS
22.635278,121.503889,hamlet,白沙尾,Baishawei,-2635098,PPL,populated place,GNS
22.683333,121.45,hamlet,,Bitoujiao,-2635784,PPL,populated place,GNS
22.666667,121.470833,hamlet,南寮,Nanliao,-2633892,PPL,populated place,GNS
22.675,121.491111,hamlet,公館,Gongguan,-2632870,PPL,populated place,GNS
22.67486,121.507931,hamlet,楠仔湖,Nanzihu,-2633105,PPL,populated place,GNS
22.666668,121.485114,hamlet,,Baigang,-2635038,PPL,populated place,GNS
22.597551,121.000497,hamlet,溪底,Xidi,6433387,PPL,populated place,GNS
22.650157,121.019861,hamlet,南坑,Nankeng,-2634507,PPL,populated place,GNS
22.682274,121.047027,hamlet,美和,Meihe,-2634158,PPL,populated place,GNS
22.729448,121.059049,hamlet,建東,Jiandong,6379220,PPL,populated place,GNS
23.046316,121.3001,hamlet,興華,Xinghua,10027399,PPL,populated place,GNS
23.064595,121.303461,hamlet,德興嶺,Dexingling,10027396,PPL,populated place,GNS
23.05981,121.301544,hamlet,德成,Decheng,10027397,PPL,populated place,GNS
23.054657,121.299339,hamlet,德高,Degao,10027398,PPL,populated place,GNS
23.05172,121.29457,hamlet,順那,Shunna,-2636890,PPL,populated place,GNS
23.058642,121.294904,hamlet,德高老,Degaolao,-2638691,PPL,populated place,GNS
23.05,121.283333,hamlet,,Qilan,-2627920,PPL,populated place,GNS
23.055028,121.280652,hamlet,排竹坑,Paizhukeng,10027414,PPL,populated place,GNS
23.065301,121.278742,hamlet,松柏坑,Songbaikeng,10027408,PPL,populated place,GNS
23.035526,121.294778,hamlet,蘭園,Lanyuan,10027412,PPL,populated place,GNS
23.008019,121.285589,hamlet,柑子林,Ganzilin,-2632358,PPL,populated place,GNS
22.847262,121.070422,hamlet,新班鳩,Xinbanjiu,-2631292,PPL,populated place,GNS
22.858387,121.080716,hamlet,五家坡,Wujiapo,10039885,PPL,populated place,GNS
22.863923,121.087556,hamlet,水源頭,Shuiyuantou,10039886,PPL,populated place,GNS
23.057222,121.162778,hamlet,本源,Benyuan,6433250,PPL,populated place,GNS
23.017222,121.151944,hamlet,月眉,Yuemei,-2640916,PPL,populated place,GNS
23.021111,121.1475,hamlet,鐵西,Tiexi,6433254,PPL,populated place,GNS
23.069444,121.154444,hamlet,中石,Zhongshi,6433245,PPL,populated place,GNS
22.984444,121.267222,hamlet,菓子山,Guozishan,6418760,PPL,populated place,GNS
22.986944,121.265,hamlet,大坵園,Daqiuyuan,6418726,PPL,populated place,GNS
22.972778,121.258889,hamlet,麻竹嶺,Mazhuling,6418750,PPL,populated place,GNS
22.99,121.261667,hamlet,大坪頂,Dapingding,6418725,PPL,populated place,GNS
22.972404,121.255376,hamlet,泰山,Taishan,10039891,PPL,populated place,GNS
22.966893,121.248863,hamlet,南溪橋,Nanxiqiao,-2639802,PPL,populated place,GNS
22.956809,121.243895,hamlet,五塊厝,Wukuaicuo,10039603,PPL,populated place,GNS
22.962557,121.240705,hamlet,前寮,Qianliao,-2627677,PPL,populated place,GNS
22.97938,121.244085,hamlet,下角港,Xiajiaogang,10039597,PPL,populated place,GNS
22.95658,121.225596,hamlet,後寮,Houliao,-2630157,PPL,populated place,GNS
22.591111,120.98,hamlet,溪頭,Xitou,6433357,PPL,populated place,GNS
22.596111,120.973889,hamlet,麻利霧,Maliwu,-2634006,PPL,populated place,GNS
22.597222,120.979722,hamlet,溪底田,Xiditian,6433388,PPL,populated place,GNS
22.670833,121.037222,hamlet,三和,Sanhe,6379267,PPL,populated place,GNS
22.681944,121.04,hamlet,山腳,Shanjiao,6379266,PPL,populated place,GNS
22.662778,121.028333,hamlet,華源,Huayuan,-2631750,PPL,populated place,GNS
22.671944,121.028056,hamlet,秀山,Xiushan,6379229,PPL,populated place,GNS
22.671111,121.027778,hamlet,杉原,Shanyuan,6379265,PPL,populated place,GNS
22.655556,121.0225,hamlet,北坑,Beikeng,-2635403,PPL,populated place,GNS
23.019977,121.286564,hamlet,北源,Beiyuan,-2635548,PPL,populated place,GNS
23.012596,121.281853,hamlet,淸溪,Qingxi,-2628012,PPL,populated place,GNS
23.015231,121.282515,hamlet,咖啡園,Jiafeiyuan,-2627318,PPL,populated place,GNS
23.032425,121.285808,hamlet,美蘭,Meilan,-2634168,PPL,populated place,GNS
23.033333,121.283333,hamlet,,Qina,-2627971,PPL,populated place,GNS
23.033333,121.283333,hamlet,,Aliliang,-2626867,PPL,populated place,GNS
23.265913,120.962721,hamlet,埡口,Yakou,10127484,PPL,populated place,GNS
22.87446,121.094641,hamlet,龍過脈,Longguomo,-2633753,PPL,populated place,GNS
22.881348,121.124159,hamlet,嘉豐,Jiafeng,10039632,PPL,populated place,GNS
22.884308,121.107909,hamlet,稻葉,Daoye,-2638311,PPL,populated place,GNS
22.895202,121.117327,hamlet,老吧老吧,Laobalaoba,10039893,PPL,populated place,GNS
22.895869,121.123769,hamlet,四維,Siwei,10039694,PPL,populated place,GNS
22.904325,121.124899,hamlet,龍田,Longtian,-2633791,PPL,populated place,GNS
22.90787,121.098799,hamlet,湖底,Hudi,-2631908,PPL,populated place,GNS
22.984375,121.210401,hamlet,泡泡,Paopao,10039591,PPL,populated place,GNS
22.987403,121.192317,hamlet,五甲坑,Wujiakeng,10039592,PPL,populated place,GNS
22.8747,121.22723,hamlet,都蘭,Dulan,-2639516,PPL,populated place,GNS
22.870076,121.223794,hamlet,四線,Sixian,10039883,PPL,populated place,GNS
22.8713,121.2238,hamlet,下都蘭,Xiadulan,10039634,PPL,populated place,GNS
22.864632,121.210613,hamlet,加母子,Jiamuzi,10039638,PPL,populated place,GNS
22.875969,121.209006,hamlet,五缐,Wuxian,-2634013,PPL,populated place,GNS
22.65,121.016667,hamlet,,Zhongkeng,-2628829,PPL,populated place,GNS
22.683056,121.000556,hamlet,鉛板厝,Qianbancuo,6433368,PPL,populated place,GNS
22.763377,121.050347,hamlet,大南,Danan,-2638157,PPL,populated place,GNS
22.7651,121.0404,hamlet,東興,Dongxing,-2638156,PPL,populated place,GNS
23.195278,121.021111,hamlet,摩天,Motian,6433174,PPL,populated place,GNS
23.22,121.0125,hamlet,栗園,Liyuan,6433170,PPL,populated place,GNS
22.908673,121.112357,hamlet,五十戶,Wushihu,-2640510,PPL,populated place,GNS
22.966667,121.133333,hamlet,,Taiyuanyuanye,-2637958,PPL,populated place,GNS
22.967938,121.115843,hamlet,武陵,Wuling,-2640443,PPL,populated place,GNS
22.979469,121.138857,hamlet,新豐,Xinfeng,-2637610,PPL,populated place,GNS
22.981955,121.155464,hamlet,瑞和,Ruihe,-2632103,PPL,populated place,GNS
22.989271,121.140966,hamlet,景豐,Jingfeng,-2630158,PPL,populated place,GNS
22.879545,121.19007,hamlet,那界,Najie,-2634365,PPL,populated place,GNS
22.882678,121.217416,hamlet,四缐,Sixian,10039631,PPL,populated place,GNS
22.88426,121.236662,hamlet,舊廍,Jiupou,10039633,PPL,populated place,GNS
22.8933,121.248,hamlet,興昌,Xingchang,-2631109,PPL,populated place,GNS
22.915719,121.192462,hamlet,銅礦,Tongkuang,10039619,PPL,populated place,GNS
22.695833,121.045,hamlet,荒野,Huangye,-2639652,PPL,populated place,GNS
22.716667,121.05,hamlet,,Tianliao,-2638803,PPL,populated place,GNS
22.719444,121.050556,hamlet,下建和,Xiajianhe,-2627652,PPL,populated place,GNS
22.706389,121.040833,hamlet,橋子頭,Qiaozitou,6379231,PPL,populated place,GNS
22.703333,121.026944,hamlet,建岡,Jiangang,6379241,PPL,populated place,GNS
22.696389,121.018611,hamlet,溫泉,Wenquan,6379230,PPL,populated place,GNS
22.691389,120.999444,hamlet,龍泉,Longquan,-2633721,PPL,populated place,GNS
23.24869,120.985048,hamlet,向陽,Xiangyang,-2630511,PPL,populated place,GNS
22.9991,121.127747,hamlet,加平,Jiaping,10039588,PPL,populated place,GNS
23.001667,121.131667,hamlet,加拿,Jiana,-2627397,PPL,populated place,GNS
23.0025,121.123333,hamlet,加和,Jiahe,6433232,PPL,populated place,GNS
22.912961,121.136423,hamlet,鹿野,Luye,-2633914,PPL,populated place,GNS
22.91967,121.116156,hamlet,馬背,Mabei,10039621,PPL,populated place,GNS
22.925696,121.126438,hamlet,高臺,Gaotai,-2632424,PPL,populated place,GNS
22.926798,121.143222,hamlet,鹿寮,Luliao,-2633661,PPL,populated place,GNS
22.928644,121.115011,hamlet,永康,Yongkang,-2641018,PPL,populated place,GNS
22.93355,121.212849,hamlet,鳥心石,Niaoxinshi,10039613,PPL,populated place,GNS
22.94326,121.217318,hamlet,七塊厝,Qikuaicuo,-2627905,PPL,populated place,GNS
22.95,121.2,hamlet,,Duomoluo,-2639162,PPL,populated place,GNS
23.010288,121.269243,hamlet,牧場,Muchang,10027384,PPL,populated place,GNS
23.018311,121.284146,hamlet,花固,Huagu,10027376,PPL,populated place,GNS
23.022399,121.271116,hamlet,馬那漢,Manahan,10027382,PPL,populated place,GNS
23.034444,121.244722,hamlet,大水堀,Dashuiku,6433286,PPL,populated place,GNS
23.036628,121.292739,hamlet,北溪,Beixi,10027413,PPL,populated place,GNS
23.045632,121.268604,hamlet,金都來,Jindulai,10027380,PPL,populated place,GNS
22.693333,121.045556,hamlet,番社,Fanshe,6379257,PPL,populated place,GNS
22.707222,121.053056,hamlet,知本,Zhiben,-2627835,PPL,populated place,GNS
22.719444,121.061389,hamlet,烟寮,Yanliao,6379253,PPL,populated place,GNS
22.737778,121.057222,hamlet,建和,Jianhe,-2627653,PPL,populated place,GNS
22.745556,121.058056,hamlet,上建和,Shangjianhe,6379240,PPL,populated place,GNS
22.7862,121.1156,hamlet,南王,Nanwang,-2634669,PPL,populated place,GNS
23.1375,121.086667,hamlet,嘉寶,Jiabao,6433183,PPL,populated place,GNS
23.166667,121.1,hamlet,,Xiamagu,-2630454,PPL,populated place,GNS
23.155278,121.064444,hamlet,下馬,Xiama,-2630452,PPL,populated place,GNS
22.929929,121.137782,hamlet,永昌,Yongchang,10039616,PPL,populated place,GNS
22.932,121.1287,hamlet,永安村,Yong'ancun,-2640966,PPL,populated place,GNS
22.933147,121.119799,hamlet,上鹿寮,Shangluliao,-2636427,PPL,populated place,GNS
22.939666,121.140934,hamlet,永隆,Yonglong,10039609,PPL,populated place,GNS
22.9556,121.1285,hamlet,永德,Yongde,10039601,PPL,populated place,GNS
22.825206,121.110548,hamlet,頂岩灣,Dingyanwan,-2636482,PPL,populated place,GNS
22.826932,121.097769,hamlet,高臺,Gaotai,-2632423,PPL,populated place,GNS
22.830157,121.093336,hamlet,澱粉,Dianfen,-2638767,PPL,populated place,GNS
23.046111,121.246389,hamlet,彈坑寮,Dankengliao,6433287,PPL,populated place,GNS
23.062222,121.255,hamlet,紅菜寮,Hongcailiao,6433291,PPL,populated place,GNS
22.901303,121.252297,hamlet,羊橋,Yangqiao,10039625,PPL,populated place,GNS
22.926667,121.268333,hamlet,隆昌,Longchang,-2633706,PPL,populated place,GNS
22.773142,121.079236,hamlet,新田,Xintian,-2631358,PPL,populated place,GNS
22.768846,121.128251,hamlet,灰窑子,Huiyaozi,-2633984,PPL,populated place,GNS
22.781004,121.122772,hamlet,卑南,Beinan,-2635433,PPL,populated place,GNS
23.168056,121.041667,hamlet,霧鹿,Wulu,-2640458,PPL,populated place,GNS
23.183333,121.033333,hamlet,,Yibanuo,-2632011,PPL,populated place,GNS
23.211389,121.031944,hamlet,吉木,Jimu,6433325,PPL,populated place,GNS
23.187222,121.021667,hamlet,利稻,Lidao,-2633411,PPL,populated place,GNS
22.834793,121.081835,hamlet,東成,Dongcheng,-2628379,PPL,populated place,GNS
22.8366,121.0929,hamlet,美農,Meinong,10039645,PPL,populated place,GNS
22.837481,121.105176,hamlet,三塊厝,Sankuaicuo,10039642,PPL,populated place,GNS
22.839965,121.097299,hamlet,萬萬,Wanwan,10039641,PPL,populated place,GNS
22.845802,121.093457,hamlet,烟草間,Yancaojian,10039639,PPL,populated place,GNS
22.858,121.091204,hamlet,初鹿,Chulu,-2628648,PPL,populated place,GNS
22.806928,121.125542,hamlet,岩灣,Yanwan,-2630775,PPL,populated place,GNS
22.987778,121.268889,hamlet,中興,Zhongxing,6418759,PPL,populated place,GNS
22.99,121.284167,hamlet,新部落,Xinbuluo,6418727,PPL,populated place,GNS
22.992778,121.290556,hamlet,嘎嘮吧灣,Galaobawan,-2636307,PPL,populated place,GNS
22.997222,121.265556,hamlet,八落安影,Baluo'anying,6418724,PPL,populated place,GNS
22.998021,121.287575,hamlet,泰源,Taiyuan,-2637954,PPL,populated place,GNS
23.002741,121.263068,hamlet,馬達吉達,Madajida,10027385,PPL,populated place,GNS
23.003242,121.271855,hamlet,法落安,Faluo'an,10027386,PPL,populated place,GNS
22.723056,121.108611,hamlet,溝仔裡,Gouzili,6379245,PPL,populated place,GNS
22.7275,121.103333,hamlet,豐源,Fengyuan,-2629627,PPL,populated place,GNS
22.73,121.118056,hamlet,旭村,Xucun,6379210,PPL,populated place,GNS
22.734167,121.123889,hamlet,三脚犁,Sanjiaoli,6379243,PPL,populated place,GNS
22.736389,121.119444,hamlet,豐里,Fengli,-2629535,PPL,populated place,GNS
22.744962,121.117149,hamlet,永樂,Yongle,10039676,PPL,populated place,GNS
22.7511,121.109104,hamlet,康樂,Kangle,-2632232,PPL,populated place,GNS
23.108889,121.202222,hamlet,上新興,Shangxinxing,6433277,PPL,populated place,GNS
23.088889,121.184722,hamlet,東明,Dongming,6433270,PPL,populated place,GNS
23.097222,121.180278,hamlet,忠慶,Zhongqing,6433271,PPL,populated place,GNS
23.092222,121.178056,hamlet,德高,Degao,6433303,PPL,populated place,GNS
23.101389,121.178333,hamlet,西庄,Xizhuang,6433302,PPL,populated place,GNS
23.095,121.175,hamlet,山平,Shanping,6433242,PPL,populated place,GNS
23.101667,121.176389,hamlet,海端,Haiduan,-2629887,PPL,populated place,GNS
23.109167,121.1775,hamlet,日新,Rixin,6433272,PPL,populated place,GNS
23.108333,121.173333,hamlet,隴下,Longxia,6433241,PPL,populated place,GNS
23.1,121.166667,hamlet,,Xinwu,-2631414,PPL,populated place,GNS
23.1175,121.167778,hamlet,初來,Chulai,-2628628,PPL,populated place,GNS
22.812725,121.101079,hamlet,後湖,Houhu,-2630118,PPL,populated place,GNS
22.802964,121.095766,hamlet,下檳榔,Xiabinlang,10039647,PPL,populated place,GNS
22.808731,121.091264,hamlet,檳榔,Binlang,-2635745,PPL,populated place,GNS
22.813303,121.089452,hamlet,頂永豐,Dingyongfeng,-2626869,PPL,populated place,GNS
23.008889,121.174722,hamlet,電光,Dianguang,-2638795,PPL,populated place,GNS
23.01,121.151944,hamlet,盛豐,Shengfeng,6433257,PPL,populated place,GNS
23.017778,121.176667,hamlet,東興,Dongxing,6433262,PPL,populated place,GNS
23.033333,121.183333,hamlet,,Rishecun,-2632090,PPL,populated place,GNS
23.036667,121.163889,hamlet,隆興,Longxing,6433265,PPL,populated place,GNS
22.983333,121.3,hamlet,,Taiyuansuidao,-2637957,PPL,populated place,GNS
22.666667,120.866667,hamlet,,Xinwei,-2631408,PPL,populated place,GNS
22.716667,120.866667,hamlet,,Lajia,-2633051,PPL,populated place,GNS
22.743889,121.136389,hamlet,豐榮,Fengrong,6379268,PPL,populated place,GNS
23.008333,121.130556,hamlet,加樂,Jiale,-2627358,PPL,populated place,GNS
23.013333,121.144167,hamlet,山顺,Shanshun,6433317,PPL,populated place,GNS
23.014167,121.151667,hamlet,中和,Zhonghe,6433318,PPL,populated place,GNS
23.026111,121.143889,hamlet,山富,Shanfu,6433316,PPL,populated place,GNS
23.029167,121.1825,hamlet,嘉武,Jiawu,-2627549,PPL,populated place,GNS
23.043889,121.168889,hamlet,新福,Xinfu,-2631107,PPL,populated place,GNS
23.045556,121.144722,hamlet,崁頂,Kanding,-2632317,PPL,populated place,GNS
23.047778,121.162778,hamlet,關山,Guanshan,-2632669,PPL,populated place,GNS
23.054444,121.177778,hamlet,溪埔,Xibu,6433268,PPL,populated place,GNS
23.061944,121.1675,hamlet,昌林,Changlin,6433248,PPL,populated place,GNS
22.7547,121.0982,hamlet,中康樂,Zhongkangle,10039675,PPL,populated place,GNS
22.762169,121.066092,hamlet,新園,Xinyuan,10039665,PPL,populated place,GNS
22.770384,121.111639,hamlet,豐年,Fengnian,10039667,PPL,populated place,GNS
22.774779,121.085228,hamlet,田寮,Tianliao,-2638804,PPL,populated place,GNS
22.7748,121.0905,hamlet,豐田,Fengtian,-2640692,PPL,populated place,GNS
22.783333,121.116667,hamlet,,Daqiao,-2637605,PPL,populated place,GNS
22.783333,121.116667,hamlet,,Rongyuzhijia,-2632142,PPL,populated place,GNS
22.52,120.879167,hamlet,近黃,Jinhuang,6433419,PPL,populated place,GNS
22.7832,121.1608,hamlet,石川,Shichuan,-2630265,PPL,populated place,GNS
22.281389,120.864722,hamlet,森永,Senyong,-2636296,PPL,populated place,GNS
22.293333,120.866667,hamlet,安朔,Anshuo,-2626928,PPL,populated place,GNS
22.244722,120.835556,hamlet,壽峠,Shouqia,-2637094,PPL,populated place,GNS
23.426972,121.469576,hamlet,北溪,Beixi,10035485,PPL,populated place,GNS
23.425281,121.458633,hamlet,中坑,Zhongkeng,10161733,PPL,populated place,GNS
23.400518,121.428814,hamlet,小嘉義,Xiaojiayi,10161759,PPL,populated place,GNS
23.375113,121.445756,hamlet,鷹仔嘴,Yinzizui,10161747,PPL,populated place,GNS
23.399459,121.456042,hamlet,南溪,Nanxi,10161746,PPL,populated place,GNS
23.404992,121.449255,hamlet,大坪頂,Dapingding,-2638362,PPL,populated place,GNS
23.415932,121.463344,hamlet,中溪,Zhongxi,10035488,PPL,populated place,GNS
23.074167,121.179167,hamlet,東庄,Dongzhuang,6433269,PPL,populated place,GNS
23.083056,121.177778,hamlet,頂庄,Dingzhuang,-2638952,PPL,populated place,GNS
23.071944,121.174444,hamlet,永豐,Yongfeng,-2638690,PPL,populated place,GNS
23.083611,121.171111,hamlet,永盛,Yongsheng,6433243,PPL,populated place,GNS
23.065833,121.160556,hamlet,紅石,Hongshi,-2631839,PPL,populated place,GNS
22.786606,121.080235,hamlet,北份子寮,Beifenziliao,10039654,PPL,populated place,GNS
22.788312,121.085882,hamlet,太平,Taiping,-2637888,PPL,populated place,GNS
22.793295,121.093314,hamlet,北份寮,Beifenliao,10039651,PPL,populated place,GNS
22.794724,121.105791,hamlet,十股,Shigu,10039649,PPL,populated place,GNS
22.910248,121.181319,hamlet,坪林,Pinglin,10039884,PPL,populated place,GNS
22.914788,121.153268,hamlet,梅山,Meishan,10039620,PPL,populated place,GNS
22.924418,121.175165,hamlet,頭教溪,Toujiaoxi,10039618,PPL,populated place,GNS
22.93098,121.186227,hamlet,上野,Shangye,10039614,PPL,populated place,GNS
22.577778,120.873611,hamlet,介達村,Jiedacun,-2627600,PPL,populated place,GNS
22.5925,120.824167,hamlet,比魯,Bilu,-2635650,PPL,populated place,GNS
22.583333,120.8,hamlet,,Baosheng,-2635261,PPL,populated place,GNS
23.334426,121.442073,hamlet,犁頭針,Litouzhen,10161757,PPL,populated place,GNS
23.363608,121.449364,hamlet,熊崙,Xionglun,10161749,PPL,populated place,GNS
23.367273,121.455131,hamlet,群崙,Qunlun,10161748,PPL,populated place,GNS
23.32148,121.449167,hamlet,中城,Zhongcheng,-2628687,PPL,populated place,GNS
23.307346,121.441282,hamlet,下田組,Xiatianzu,-2638875,PPL,populated place,GNS
23.326141,121.439058,hamlet,忠勇,Zhongyong,-2629020,PPL,populated place,GNS
23.331843,121.437072,hamlet,上田組,Shangtianzu,10161756,PPL,populated place,GNS
23.139167,121.2,hamlet,萬朝,Wanchao,-2640003,PPL,populated place,GNS
23.145278,121.196111,hamlet,山脚,Shanjiao,6433197,PPL,populated place,GNS
23.131944,121.187222,hamlet,陸安,Lu'an,6433273,PPL,populated place,GNS
23.130556,121.174444,hamlet,錦屏,Jinping,-2628182,PPL,populated place,GNS
23.132778,121.123889,hamlet,新武,Xinwu,-2631415,PPL,populated place,GNS
23.129722,121.115556,hamlet,坑尾,Kengwei,6433308,PPL,populated place,GNS
23.046111,121.196944,hamlet,振興,Zhenxing,-2627251,PPL,populated place,GNS
22.934038,121.170322,hamlet,石綿,Shimian,10039615,PPL,populated place,GNS
22.937901,121.160868,hamlet,新良,Xinliang,-2631252,PPL,populated place,GNS
22.9483,121.172337,hamlet,后湖,Houhu,10039604,PPL,populated place,GNS
22.951952,121.165119,hamlet,坪頂,Pingding,10039605,PPL,populated place,GNS
22.952625,121.157246,hamlet,瑞隆,Ruilong,10039606,PPL,populated place,GNS
22.954422,121.161056,hamlet,層平,Cengping,10039890,PPL,populated place,GNS
22.95532,121.157994,hamlet,廣興,Guangxing,-2638451,PPL,populated place,GNS
22.959567,121.157661,hamlet,瑞源,Ruiyuan,-2632122,PPL,populated place,GNS
22.253611,120.841111,hamlet,歸田,Guitian,6418707,PPL,populated place,GNS
22.281111,120.845833,hamlet,阿塱衛,Alangwei,-2626855,PPL,populated place,GNS
22.280278,120.824167,hamlet,舊安朔,Jiu'anshuo,6418709,PPL,populated place,GNS
22.374444,120.883611,hamlet,大鳥萬,Daniaowan,-2638219,PPL,populated place,GNS
22.36,120.879167,hamlet,加羅坂,Jialuofan,6418689,PPL,populated place,GNS
22.358333,120.866111,hamlet,加拉坂,Jialafan,-2632155,PPL,populated place,GNS
22.383889,120.865,hamlet,鳥萬溪頭,Niaowanxitou,6418681,PPL,populated place,GNS
22.376389,120.858056,hamlet,伊喬莫,Yiqiaomo,6418684,PPL,populated place,GNS
22.381111,120.8575,hamlet,新化,Xinhua,-2631195,PPL,populated place,GNS
23.306092,121.418247,hamlet,齒草坑,Chicaokeng,10161779,PPL,populated place,GNS
23.296141,121.432702,hamlet,永福,Yongfu,-2640996,PPL,populated place,GNS
23.3,121.433333,hamlet,,Saobiezi,-2636292,PPL,populated place,GNS
23.292711,121.415574,hamlet,牛湖,Niuhu,-2630472,PPL,populated place,GNS
23.273662,121.425961,hamlet,下崁,Xiakan,10161751,PPL,populated place,GNS
23.283795,121.427907,hamlet,竹湖,Zhuhu,-2628579,PPL,populated place,GNS
23.284939,121.422999,hamlet,鹿寮溝,Luliaogou,10161753,PPL,populated place,GNS
23.091667,121.2125,hamlet,龍仔尾,Longziwei,6433280,PPL,populated place,GNS
23.092222,121.221944,hamlet,魏厝,Weicuo,6433247,PPL,populated place,GNS
23.093611,121.219167,hamlet,萬安,Wan'an,-2639999,PPL,populated place,GNS
23.102778,121.205,hamlet,下新興,Xiaxinxing,6433278,PPL,populated place,GNS
23.103056,121.221667,hamlet,錦園,Jinyuan,-2628224,PPL,populated place,GNS
23.106667,121.2075,hamlet,新興,Xinxing,-2631166,PPL,populated place,GNS
23.119167,121.214167,hamlet,大埔,Dabu,-2638423,PPLX,populated place,GNS
23.1225,121.231944,hamlet,大坡,Dapo,-2638406,PPL,populated place,GNS
23.125,121.216667,hamlet,池上,Chishang,-2627848,PPL,populated place,GNS
23.129444,121.230556,hamlet,慶豐,Qingfeng,-2628007,PPL,populated place,GNS
22.964066,121.178559,hamlet,木坑,Mukeng,10039599,PPL,populated place,GNS
22.97466,121.172974,hamlet,寳華,Baohua,10039596,PPL,populated place,GNS
22.976762,121.156076,hamlet,瑞興,Ruixing,10039595,PPL,populated place,GNS
22.99321,121.174367,hamlet,南興,Nanxing,10039590,PPL,populated place,GNS
22.369722,120.85,hamlet,苗圃,Miaobu,6418686,PPL,populated place,GNS
22.393611,120.854167,hamlet,森茂,Senmao,6418679,PPL,populated place,GNS
22.389444,120.852778,hamlet,新生,Xinsheng,6418685,PPL,populated place,GNS
22.403056,120.848333,hamlet,著加拉,Zhuojiala,-2628439,PPL,populated place,GNS
22.374444,120.840556,hamlet,姑子崙,Guzilun,-2633042,PPL,populated place,GNS
22.324444,120.771389,hamlet,内加芝來,Neijiazhilai,-2627311,PPL,populated place,GNS
22.48,120.913611,hamlet,拉里巴,Laliba,-2633077,PPL,populated place,GNS
22.4775,120.908056,hamlet,臺坂,Taifan,-2637834,PPL,populated place,GNS
22.486667,120.9025,hamlet,爵阿埔旺,Jue'abuwang,6418661,PPL,populated place,GNS
22.480833,120.899444,hamlet,吉加里斯,Jijialisi,6418660,PPL,populated place,GNS
22.004167,121.592222,hamlet,龍頭,Longtou,6333659,PPL,populated place,GNS
23.253173,121.417854,hamlet,白桑安,Baisang'an,-2635295,PPL,populated place,GNS
23.275243,121.422261,hamlet,南竹湖,Nanzhuhu,-2634418,PPL,populated place,GNS
23.259691,121.418133,hamlet,城山,Chengshan,-2627234,PPL,populated place,GNS
23.2562,121.411506,hamlet,柵風愛,Zhafeng'ai,10161782,PPL,populated place,GNS
23.271834,121.409481,hamlet,石門巷,Shimenxiang,10161783,PPL,populated place,GNS
23.295173,121.403719,hamlet,咬人狗湖,Yaorengouhu,10161787,PPL,populated place,GNS
23.262729,121.392758,hamlet,嘰卡拉袋,Jikaladai,10161785,PPL,populated place,GNS
22.886111,120.938611,hamlet,桃林,Taolin,-2638291,PPL,populated place,GNS
22.999722,121.177222,hamlet,廣興,Guangxing,6433260,PPL,populated place,GNS
22.862091,121.136353,hamlet,山里,Shanli,-2636504,PPL,populated place,GNS
22.882026,121.142273,hamlet,和平,Heping,-2630035,PPL,populated place,GNS
22.887639,121.16005,hamlet,榕山,Rongshan,-2631424,PPL,populated place,GNS
22.892713,121.138256,hamlet,擺子擺,Baizibai,10039871,PPL,populated place,GNS
22.9,121.166667,hamlet,,Zhongyeshe,-2629010,PPL,populated place,GNS
22.486389,120.885278,hamlet,拖狗,Tuogou,-2639153,PPL,populated place,GNS
22.473889,120.875278,hamlet,爵巴里,Juebali,6418656,PPL,populated place,GNS
22.483889,120.877222,hamlet,臺坂溪頭,Taifanxitou,6418655,PPL,populated place,GNS
22.462222,120.869444,hamlet,德巴吉,Debaji,6418658,PPL,populated place,GNS
22.465833,120.863611,hamlet,凱西亞,Kaixiya,6418657,PPL,populated place,GNS
22.488333,120.863889,hamlet,古達卡斯,Gudakasi,6418654,PPL,populated place,GNS
22.5,120.866667,hamlet,,Toyage,-2639262,PPL,populated place,GNS
22.465,120.853889,hamlet,張仁木,Zhangrenmu,6418723,PPL,populated place,GNS
22.477222,120.839444,hamlet,大谷社,Dagushe,-2638013,PPL,populated place,GNS
23.24591,121.363298,hamlet,大莊越,Dazhuangyue,10027330,PPL,populated place,GNS
23.230306,121.413381,hamlet,南烏石鼻,Nanwushibi,-2640514,PPL,populated place,GNS
23.235219,121.413303,hamlet,北烏石鼻,Beiwushibi,-2635545,PPL,populated place,GNS
23.244031,121.415641,hamlet,寧埔,Ningbu,-2634869,PPL,populated place,GNS
22.766357,121.030543,hamlet,比利良,Bililiang,10039663,PPL,populated place,GNS
22.767546,121.045065,hamlet,東園,Dongyuan,10039664,PPL,populated place,GNS
22.810238,121.053117,hamlet,上太平,Shangtaiping,-2636461,PPL,populated place,GNS
22.900793,121.152344,hamlet,鸞山,Luanshan,-2633606,PPL,populated place,GNS
22.905759,121.184001,hamlet,松林,Songlin,10039623,PPL,populated place,GNS
22.759912,121.144569,hamlet,臺東,Taidong,-2637928,PPLA,populated place,GNS
22.761688,121.123369,hamlet,下康樂,Xiakangle,10039672,PPL,populated place,GNS
22.45,120.9,hamlet,,Jiakuobucun,-2627349,PPL,populated place,GNS
22.455833,120.8875,hamlet,新高社,Xingaoshe,-2631234,PPL,populated place,GNS
22.453611,120.886944,hamlet,土坂,Tufan,-2636388,PPL,populated place,GNS
22.446667,120.88,hamlet,巴巴拉崙,Babalalun,6418671,PPL,populated place,GNS
22.443333,120.874167,hamlet,新興,Xinxing,-2631163,PPL,populated place,GNS
22.431667,120.865,hamlet,他巴卡斯,Tabaqiasi,-2638328,PPL,populated place,GNS
22.426111,120.8625,hamlet,大坂槽,Dafancao,6418673,PPL,populated place,GNS
22.453889,120.863611,hamlet,民佳站,Minjiazhan,6418659,PPL,populated place,GNS
22.416944,120.844167,hamlet,紹家,Shaojia,-2636585,PPL,populated place,GNS
22.410556,120.836389,hamlet,柿子埔社,Shizibushe,-2636939,PPL,populated place,GNS
23.246972,121.41228,hamlet,光榮,Guangrong,10027342,PPL,populated place,GNS
23.209246,121.398562,hamlet,宜灣,Yiwan,-2636300,PPL,populated place,GNS
23.22403,121.386788,hamlet,堤烏岡,Tiwugang,10027341,PPL,populated place,GNS
23.252895,121.387173,hamlet,移民,Yimin,10161784,PPL,populated place,GNS
23.192718,121.395117,hamlet,重安,Chong'an,-2628681,PPL,populated place,GNS
23.164409,121.370731,hamlet,小坑,Xiaokeng,10027326,PPL,populated place,GNS
22.871372,121.055614,hamlet,上里,Shangli,-2636423,PPL,populated place,GNS
22.912633,121.093629,hamlet,鹿鳴,Luming,-2633685,PPL,populated place,GNS
22.939499,121.074815,hamlet,老公寮,Laogongliao,10039608,PPL,populated place,GNS
22.791468,121.152473,hamlet,下農場,Xianongchang,10039658,PPL,populated place,GNS
22.806787,121.153644,hamlet,富源,Fuyuan,-2629820,PPL,populated place,GNS
23.034722,121.188611,hamlet,嘉文,Jiawen,6433304,PPL,populated place,GNS
23.0425,121.190833,hamlet,大水湖,Dashuihu,6433267,PPL,populated place,GNS
23.05,121.2,hamlet,,Baimaoliao,-2635066,PPL,populated place,GNS
23.050278,121.225833,hamlet,北坑,Beikeng,6433288,PPL,populated place,GNS
23.06,121.229444,hamlet,石公厝,Shigongcuo,6433290,PPL,populated place,GNS
23.066111,121.231667,hamlet,山棕寮,Shanzongliao,6433292,PPL,populated place,GNS
22.457778,120.840833,hamlet,納涼,Naliang,-2634368,PPL,populated place,GNS
22.416667,120.816667,hamlet,,Gulun,-2632842,PPL,populated place,GNS
22.387222,120.896389,hamlet,達萬,Dawan,6418680,PPL,populated place,GNS
22.401667,120.895833,hamlet,初屯,Chutun,-2629127,PPL,populated place,GNS
22.521389,120.914167,hamlet,莫哥布各,Mogebuge,6433430,PPL,populated place,GNS
22.525833,120.926667,hamlet,歷坵,Liqiu,-2633224,PPL,populated place,GNS
22.530278,120.94,hamlet,溫泉,Wenquan,6433435,PPL,populated place,GNS
22.533333,120.933333,hamlet,,Xiaojinlun,-2630533,PPL,populated place,GNS
23.137686,121.362167,hamlet,興農,Xingnong,10027442,PPL,populated place,GNS
23.14398,121.355827,hamlet,石棺,Shiguan,10027439,PPL,populated place,GNS
23.127956,121.346141,hamlet,瀑布下,Pubuxia,10027437,PPL,populated place,GNS
23.123333,121.238889,hamlet,北溪,Beixi,6433171,PPL,populated place,GNS
23.145413,121.370147,hamlet,煙筒仔坑,Yantongzikeng,10027329,PPL,populated place,GNS
23.088593,121.355111,hamlet,下麒麟,Xiaqilin,10027419,PPL,populated place,GNS
23.093749,121.356422,hamlet,麒麟,Qilin,-2627933,PPL,populated place,GNS
23.095657,121.358695,hamlet,北麒麟,Beiqilin,10027424,PPL,populated place,GNS
23.107386,121.359691,hamlet,橘子山,Juzishan,10027417,PPL,populated place,GNS
22.897243,121.095835,hamlet,四維,Siwei,10039693,PPL,populated place,GNS
22.889362,121.093647,hamlet,舊鹿鳴,Jiuluming,10039627,PPL,populated place,GNS
22.892497,121.08185,hamlet,下中里,Xiazhongli,10039892,PPL,populated place,GNS
22.9034,121.0838,hamlet,桃源,Taoyuan,-2638314,PPL,populated place,GNS
22.897632,121.076152,hamlet,下里,Xiali,-2630410,PPL,populated place,GNS
23.071667,121.217778,hamlet,水墜,Shuizhui,-2637204,PPL,populated place,GNS
22.860674,121.200984,hamlet,新蘭,Xinlan,-2634364,PPL,populated place,GNS
22.82194,121.189944,hamlet,漁場,Yuchang,-2635440,PPL,populated place,GNS
22.8288,121.1863,hamlet,荊桐,Jingtong,-2633423,PPL,populated place,GNS
22.8526,121.1921,hamlet,郡界,Junjie,-2628671,PPL,populated place,GNS
22.839153,121.187844,hamlet,杉原,Shanyuan,-2636584,PPL,populated place,GNS
22.591667,120.945278,hamlet,布查其蘭,Buchaqilan,6433393,PPL,populated place,GNS
22.593889,120.961389,hamlet,嘉蘭,Jialan,-2627353,PPLX,populated place,GNS
22.595,120.960556,hamlet,金峰,Jinfeng,6433463,PPL,populated place,GNS
22.456667,120.922222,hamlet,工作地,Gongzuodi,6418664,PPL,populated place,GNS
22.621389,121.001667,hamlet,沙崙,Shalun,6433378,PPL,populated place,GNS
22.606667,120.995278,hamlet,,Jiebicun,-2627597,PPL,populated place,GNS
22.614167,120.990278,hamlet,佳倫,Jialun,6433383,PPL,populated place,GNS
23.095659,121.346319,hamlet,上麒麟,Shangqilin,-2636377,PPL,populated place,GNS
23.081944,121.236389,hamlet,保甲園,Baojiayuan,6433293,PPL,populated place,GNS
23.083056,121.222222,hamlet,富興,Fuxing,-2629726,PPL,populated place,GNS
23.095,121.234167,hamlet,鳳梨園,Fengliyuan,6433165,PPL,populated place,GNS
23.096273,121.267483,hamlet,鼈溪越,Biexiyue,10027375,PPL,populated place,GNS
23.104444,121.235556,hamlet,嶺頂,Lingding,6433190,PPL,populated place,GNS
22.900526,121.066097,hamlet,舊紅葉,Jiuhongye,10039622,PPL,populated place,GNS
22.893706,121.062693,hamlet,紅葉,Hongye,-2631856,PPL,populated place,GNS
22.877936,121.054694,hamlet,清水,Qingshui,10039629,PPL,populated place,GNS
22.758603,121.051297,hamlet,蘇巴陽,Subayang,10039674,PPL,populated place,GNS
22.775332,121.063276,hamlet,利嘉村,Lijiacun,-2633217,PPL,populated place,GNS
22.795097,121.067176,hamlet,泰安,Tai'an,10039872,PPL,populated place,GNS
22.835806,121.068461,hamlet,水頭,Shuitou,10039646,PPL,populated place,GNS
22.86096,121.154908,hamlet,阿幫安,Abang'an,10039637,PPL,populated place,GNS
22.825946,121.132985,hamlet,利吉,Liji,-2633221,PPL,populated place,GNS
22.777773,121.174434,hamlet,海堡,Haibao,10039661,PPL,populated place,GNS
22.793018,121.187346,hamlet,富岡,Fugang,79840,PPL,populated place,GNS
22.8,121.183333,hamlet,,Shishan,-2636960,PPL,populated place,GNS
22.8,121.183333,hamlet,,Yushanxincun,-2641061,PPL,populated place,GNS
22.8109,121.1877,hamlet,加路蘭,Jialulan,-2627387,PPL,populated place,GNS
22.5975,120.9725,hamlet,橋頭,Qiaotou,6433458,PPL,populated place,GNS
22.601111,120.835833,hamlet,斗里斗里社,Doulidoulishe,-2639220,PPL,populated place,GNS
22.6,120.833333,hamlet,,Songwuluo,-2637556,PPL,populated place,GNS
22.640556,121.014444,hamlet,新吉,Xinji,-2637863,PPL,populated place,GNS
22.629722,121.0075,hamlet,北太麻里,Beitaimali,-2635503,PPL,populated place,GNS
22.634444,121.000833,hamlet,新興,Xinxing,6433376,PPL,populated place,GNS
22.641944,121.001667,hamlet,三條坑,Santiaokeng,6433375,PPL,populated place,GNS
22.651667,120.993611,hamlet,薑母寮,Jiangmuliao,6433371,PPL,populated place,GNS
22.6625,120.993333,hamlet,森川,Senchuan,6433370,PPL,populated place,GNS
22.418611,120.861389,hamlet,埔里雅社,Puliyashe,-2635972,PPL,populated place,GNS
22.401171,120.757432,hamlet,,Qinshuiying,-2628209,PPL,populated place,GNS
22.373952,120.90252,hamlet,汀掛,Dinggua,6418682,PPL,populated place,GNS
22,121.566667,hamlet,,Fuxingnongzhuang,-2629722,PPL,populated place,GNS
22.023333,121.559444,hamlet,中興農莊,Zhongxingnongzhuang,-2628790,PPL,populated place,GNS
22.066667,121.5,hamlet,,Dingxingnongzhuang,-2638991,PPL,populated place,GNS
22.050833,121.512778,hamlet,椰油,Yeyou,-2640669,PPL,populated place,GNS
22.037222,121.5675,hamlet,野銀,Yeyin,-2640668,PPL,populated place,GNS
22.0275,121.542778,hamlet,漁人,Yuren,-2640930,PPL,populated place,GNS
22.078611,121.512778,hamlet,五孔洞,Wukongdong,-2640420,PPL,populated place,GNS
22.057778,121.564444,hamlet,東清,Dongqing,-2639562,PPL,populated place,GNS
22.010833,121.5725,hamlet,四道溝,Sidaogou,-2637470,PPL,populated place,GNS
22.025556,121.554444,hamlet,紅頭,Hongtou,-2633109,PPL,populated place,GNS
22.083333,121.616667,hamlet,,Langdaoxi,-2633082,PPL,populated place,GNS
22.078333,121.528889,hamlet,朗島,Langdao,-2633081,PPL,populated place,GNS
22.016667,121.583333,hamlet,,Longmen,-2633758,PPL,populated place,GNS
22.057222,121.51,hamlet,開元港,Kaiyuangang,-2632152,PPL,populated place,GNS
