lat,lon,place,name,name:en,GNS:id,GNS:dsg_code,GNS:dsg_string,source
22.683333,121.5,village,,Liumagou,-2633499,PPL,populated place,GNS
22.671111,121.506667,village,觀音洞,Guanyindong,-2632729,PPL,populated place,GNS
22.656944,121.500556,village,海參坪,Haishenping,-2629886,PPL,populated place,GNS
22.674167,121.471944,village,中寮,Zhongliao,-2628874,PPL,populated place,GNS
22.674167,121.479444,village,柴口,Chaikou,-2626986,PPL,populated place,GNS
22.674444,121.496389,village,將軍岩,Jiangjunyan,-2627422,PPL,populated place,GNS
23.127255,121.379117,village,大坪頂,Dapingding,10027440,PPL,populated place,GNS
23.12546,121.37152,village,富台,Futai,10027441,PPL,populated place,GNS
23.122339,121.406893,village,三仙臺,Sanxiantai,10027450,PPL,populated place,GNS
22.662222,121.503611,village,白角,Baijiao,6431167,PPL,populated place,GNS
22.646944,121.498333,village,溫泉,Wenquan,6431169,PPL,populated place,GNS
22.636944,121.503056,village,旭海,Xuhai,6431170,PPL,populated place,GNS
22.650556,121.500833,village,尾湖,Weihu,6431171,PPL,populated place,GNS
22.638333,121.5,village,白沙,Baisha,6431173,PPL,populated place,GNS
23.397317,121.478412,village,八仙洞,Baxiandong,10035478,PPL,populated place,GNS
23.315144,121.45158,village,崎腳,Qijiao,10035515,PPL,populated place,GNS
22.322222,120.891111,village,圓山,Yuanshan,-2640815,PPL,populated place,GNS
22.336111,120.881111,village,大湖,Dahu,-2637778,PPL,populated place,GNS
23.380501,121.471517,village,大俱來,Dajulai,-2637701,PPL,populated place,GNS
22.45,120.933333,village,,Dazhugaoshan,-2637698,PPL,populated place,GNS
22.443611,120.938611,village,大竹,Dazhu,-2637671,PPL,populated place,GNS
23.223867,121.414474,village,,Danman,-2638231,PPL,populated place,GNS
22.384722,120.91,village,大鳥,Daniao,-2638215,PPL,populated place,GNS
22.968056,121.303611,village,東河,Donghe,-2639591,PPL,populated place,GNS
22.294167,120.885833,village,達仁,Daren,-2637964,PPL,populated place,GNS
22.604444,121.001667,village,德其里,Deqili,-2638679,PPL,populated place,GNS
22.6125,121.004444,village,太麻里,Taimali,-2637860,PPL,populated place,GNS
22.555556,120.966944,village,大武窟,Dawuku,-2638644,PPL,populated place,GNS
22.362778,120.906944,village,大武,Dawu,-2638636,PPL,populated place,GNS
23.176802,121.40088,village,石雨傘,Shiyusan,-2637090,PPL,populated place,GNS
23.330022,121.462066,village,長光,Changguang,-2636808,PPL,populated place,GNS
23.121199,121.401695,village,三仙,Sanxian,-2636118,PPL,populated place,GNS
23.357962,121.468631,village,三間屋,Sanjianwu,-2636056,PPL,populated place,GNS
23.34188,121.463645,village,真柄,Zhenbing,-2636050,PPL,populated place,GNS
23.081866,121.353332,village,八邊,Babian,-2635292,PPL,populated place,GNS
23.401835,121.48019,village,水母丁,Shuimuding,-2637247,PPL,populated place,GNS
23.129392,121.400519,village,白守蓮,Baishoulian,-2635112,PPL,populated place,GNS
22.339722,120.890833,village,尚武,Shangwu,-2636481,PPL,populated place,GNS
22.514167,120.955,village,上多良,Shangduoliang,-2636473,PPL,populated place,GNS
22.485278,120.944722,village,上大溪,Shangdaxi,-2636457,PPL,populated place,GNS
23.15195,121.396513,village,美山,Meishan,-2634186,PPL,populated place,GNS
23.149463,121.398227,village,微沙鹿,Weishalu,-2634185,PPL,populated place,GNS
22.263056,120.8825,village,舊南田,Jiunantian,-2634640,PPL,populated place,GNS
22.506944,120.956111,village,下多良,Xiaduoliang,-2633795,PPL,populated place,GNS
22.308889,120.888889,village,南興,Nanxing,-2634446,PPL,populated place,GNS
23.041008,121.339065,village,豐泉,Fengquan,-2629503,PPL,populated place,GNS
23.075546,121.350369,village,和平,Heping,-2630036,PPL,populated place,GNS
22.525278,120.952778,village,下多良,Xiaduoliang,-2630746,PPL,populated place,GNS
22.461667,120.939444,village,大溪,Daxi,-2630725,PPL,populated place,GNS
23.012939,121.323287,village,新村,Xincun,-2631397,PPL,populated place,GNS
22.992983,121.314828,village,小馬,Xiaoma,-2630594,PPL,populated place,GNS
23.159775,121.401475,village,小港,Xiaogang,-2630562,PPL,populated place,GNS
22.575833,120.989167,village,新香蘭,Xinxianglan,-2630482,PPL,populated place,GNS
23.028202,121.331617,village,都歷,Duli,-2631203,PPL,populated place,GNS
23.003442,121.315694,village,小馬,Xiaoma,-2631202,PPL,populated place,GNS
23.049265,121.337368,village,豐田,Fengtian,-2629599,PPL,populated place,GNS
23.102937,121.379087,village,成功,Chenggong,-2627221,PPL,populated place,GNS
23.115488,121.400484,village,基翬,Jihui,-2627889,PPL,populated place,GNS
23.109998,121.385594,village,芝田,Zhitian,-2627876,PPL,populated place,GNS
23.416093,121.484156,village,樟原,Zhangyuan,-2627105,PPL,populated place,GNS
22.793809,121.192142,village,集岡,Jigang,-2627863,PPL,populated place,GNS
23.316651,121.456632,village,長濱,Changbin,-2627069,PPL,populated place,GNS
23.335086,121.463159,village,城子埔,Chengzibu,-2627052,PPL,populated place,GNS
22.586389,120.994167,village,舊香蘭,Jiuxianglan,-2628313,PPL,populated place,GNS
22.453056,120.923889,village,愛國浦,Aiguopu,-2626842,PPL,populated place,GNS
23.066446,121.3471,village,嘉平,Jiaping,-2627521,PPL,populated place,GNS
22.958889,121.289722,village,金樽,Jinzun,-2628212,PPL,populated place,GNS
22.5325,120.965,village,金崙,Jinlun,-2628161,PPL,populated place,GNS
22.430556,120.933333,village,富山,Fushan,-2627399,PPL,populated place,GNS
23.409052,121.482506,village,加錄社,Jialushe,-2627383,PPL,populated place,GNS
22.416389,120.923056,village,加津林,Jiajinlin,-2627312,PPL,populated place,GNS
23.065483,121.349905,village,加只來,Jiazhilai,-2627309,PPL,populated place,GNS
22.722778,121.129444,village,馬東,Madong,6379246,PPL,populated place,GNS
22.400556,120.908056,village,獅子獅,Shizishi,6418678,PPL,populated place,GNS
22.365278,120.900278,village,和平,Heping,6418690,PPL,populated place,GNS
22.340833,120.895833,village,客莊,Kezhuang,6418692,PPL,populated place,GNS
22.421667,120.931111,village,富南,Funan,6418695,PPL,populated place,GNS
22.333056,120.878056,village,西勢湖,Xishihu,6418696,PPL,populated place,GNS
22.345278,120.880278,village,古莊,Guzhuang,6418697,PPL,populated place,GNS
22.33,120.890833,village,南嘉,Nanjia,6418698,PPL,populated place,GNS
22.286111,120.889167,village,上南田,Shangnantian,6418701,PPL,populated place,GNS
22.276944,120.89,village,下南田,Xianantian,6418702,PPL,populated place,GNS
22.344167,120.888611,village,麻園,Mayuan,6418721,PPL,populated place,GNS
22.986667,121.313056,village,隧道口,Suidaokou,6418738,PPL,populated place,GNS
22.993889,121.315,village,小馬,Xiaoma,6418739,PPL,populated place,GNS
22.973611,121.305833,village,北東河,Beidonghe,6418740,PPL,populated place,GNS
22.964167,121.300278,village,南東河,Nandonghe,6418761,PPL,populated place,GNS
22.604167,120.9975,village,正興,Zhengxing,6433385,PPL,populated place,GNS
22.543889,120.966389,village,富山,Fushan,6433391,PPL,populated place,GNS
22.5675,120.975833,village,松子澗,Songzijian,6433412,PPL,populated place,GNS
22.531667,120.961111,village,賓茂,Binmao,6433433,PPL,populated place,GNS
23.216359,121.408903,village,堺橋,Jieqiao,10027318,PPL,populated place,GNS
23.179264,121.397566,village,男人石,Nanrenshi,10027321,PPL,populated place,GNS
23.169476,121.403403,village,玉水橋,Yushuiqiao,10027356,PPL,populated place,GNS
22.666111,121.508889,village,柚子湖,Youzihu,-2641081,PPL,populated place,GNS
22.666667,121.466667,village,,Yugang,-2640933,PPL,populated place,GNS
22.35,121.366667,village,,Shanfucun,-2636372,PPL,populated place,GNS
22.635278,121.503889,village,白沙尾,Baishawei,-2635098,PPL,populated place,GNS
22.683333,121.45,village,,Bitoujiao,-2635784,PPL,populated place,GNS
22.666667,121.470833,village,南寮,Nanliao,-2633892,PPL,populated place,GNS
22.675,121.491111,village,公館,Gongguan,-2632870,PPL,populated place,GNS
22.67486,121.507931,village,楠仔湖,Nanzihu,-2633105,PPL,populated place,GNS
22.666668,121.485114,village,,Baigang,-2635038,PPL,populated place,GNS
22.597551,121.000497,village,溪底,Xidi,6433387,PPL,populated place,GNS
22.650157,121.019861,village,南坑,Nankeng,-2634507,PPL,populated place,GNS
22.682274,121.047027,village,美和,Meihe,-2634158,PPL,populated place,GNS
22.729448,121.059049,village,建東,Jiandong,6379220,PPL,populated place,GNS
23.046316,121.3001,village,興華,Xinghua,10027399,PPL,populated place,GNS
23.064595,121.303461,village,德興嶺,Dexingling,10027396,PPL,populated place,GNS
23.05981,121.301544,village,德成,Decheng,10027397,PPL,populated place,GNS
23.054657,121.299339,village,德高,Degao,10027398,PPL,populated place,GNS
23.05172,121.29457,village,順那,Shunna,-2636890,PPL,populated place,GNS
23.058642,121.294904,village,德高老,Degaolao,-2638691,PPL,populated place,GNS
23.05,121.283333,village,,Qilan,-2627920,PPL,populated place,GNS
23.055028,121.280652,village,排竹坑,Paizhukeng,10027414,PPL,populated place,GNS
23.065301,121.278742,village,松柏坑,Songbaikeng,10027408,PPL,populated place,GNS
23.035526,121.294778,village,蘭園,Lanyuan,10027412,PPL,populated place,GNS
23.008019,121.285589,village,柑子林,Ganzilin,-2632358,PPL,populated place,GNS
22.847262,121.070422,village,新班鳩,Xinbanjiu,-2631292,PPL,populated place,GNS
22.858387,121.080716,village,五家坡,Wujiapo,10039885,PPL,populated place,GNS
22.863923,121.087556,village,水源頭,Shuiyuantou,10039886,PPL,populated place,GNS
23.057222,121.162778,village,本源,Benyuan,6433250,PPL,populated place,GNS
23.017222,121.151944,village,月眉,Yuemei,-2640916,PPL,populated place,GNS
23.021111,121.1475,village,鐵西,Tiexi,6433254,PPL,populated place,GNS
23.069444,121.154444,village,中石,Zhongshi,6433245,PPL,populated place,GNS
22.984444,121.267222,village,菓子山,Guozishan,6418760,PPL,populated place,GNS
22.986944,121.265,village,大坵園,Daqiuyuan,6418726,PPL,populated place,GNS
22.972778,121.258889,village,麻竹嶺,Mazhuling,6418750,PPL,populated place,GNS
22.99,121.261667,village,大坪頂,Dapingding,6418725,PPL,populated place,GNS
22.972404,121.255376,village,泰山,Taishan,10039891,PPL,populated place,GNS
22.966893,121.248863,village,南溪橋,Nanxiqiao,-2639802,PPL,populated place,GNS
22.956809,121.243895,village,五塊厝,Wukuaicuo,10039603,PPL,populated place,GNS
22.962557,121.240705,village,前寮,Qianliao,-2627677,PPL,populated place,GNS
22.97938,121.244085,village,下角港,Xiajiaogang,10039597,PPL,populated place,GNS
22.95658,121.225596,village,後寮,Houliao,-2630157,PPL,populated place,GNS
22.591111,120.98,village,溪頭,Xitou,6433357,PPL,populated place,GNS
22.596111,120.973889,village,麻利霧,Maliwu,-2634006,PPL,populated place,GNS
22.597222,120.979722,village,溪底田,Xiditian,6433388,PPL,populated place,GNS
22.670833,121.037222,village,三和,Sanhe,6379267,PPL,populated place,GNS
22.681944,121.04,village,山腳,Shanjiao,6379266,PPL,populated place,GNS
22.662778,121.028333,village,華源,Huayuan,-2631750,PPL,populated place,GNS
22.671944,121.028056,village,秀山,Xiushan,6379229,PPL,populated place,GNS
22.671111,121.027778,village,杉原,Shanyuan,6379265,PPL,populated place,GNS
22.655556,121.0225,village,北坑,Beikeng,-2635403,PPL,populated place,GNS
23.019977,121.286564,village,北源,Beiyuan,-2635548,PPL,populated place,GNS
23.012596,121.281853,village,淸溪,Qingxi,-2628012,PPL,populated place,GNS
23.015231,121.282515,village,咖啡園,Jiafeiyuan,-2627318,PPL,populated place,GNS
23.032425,121.285808,village,美蘭,Meilan,-2634168,PPL,populated place,GNS
23.033333,121.283333,village,,Qina,-2627971,PPL,populated place,GNS
23.033333,121.283333,village,,Aliliang,-2626867,PPL,populated place,GNS
23.265913,120.962721,village,埡口,Yakou,10127484,PPL,populated place,GNS
22.87446,121.094641,village,龍過脈,Longguomo,-2633753,PPL,populated place,GNS
22.881348,121.124159,village,嘉豐,Jiafeng,10039632,PPL,populated place,GNS
22.884308,121.107909,village,稻葉,Daoye,-2638311,PPL,populated place,GNS
22.895202,121.117327,village,老吧老吧,Laobalaoba,10039893,PPL,populated place,GNS
22.895869,121.123769,village,四維,Siwei,10039694,PPL,populated place,GNS
22.904325,121.124899,village,龍田,Longtian,-2633791,PPL,populated place,GNS
22.90787,121.098799,village,湖底,Hudi,-2631908,PPL,populated place,GNS
22.984375,121.210401,village,泡泡,Paopao,10039591,PPL,populated place,GNS
22.987403,121.192317,village,五甲坑,Wujiakeng,10039592,PPL,populated place,GNS
22.8747,121.22723,village,都蘭,Dulan,-2639516,PPL,populated place,GNS
22.870076,121.223794,village,四線,Sixian,10039883,PPL,populated place,GNS
22.8713,121.2238,village,下都蘭,Xiadulan,10039634,PPL,populated place,GNS
22.864632,121.210613,village,加母子,Jiamuzi,10039638,PPL,populated place,GNS
22.875969,121.209006,village,五缐,Wuxian,-2634013,PPL,populated place,GNS
22.65,121.016667,village,,Zhongkeng,-2628829,PPL,populated place,GNS
22.683056,121.000556,village,鉛板厝,Qianbancuo,6433368,PPL,populated place,GNS
22.763377,121.050347,village,大南,Danan,-2638157,PPL,populated place,GNS
22.7651,121.0404,village,東興,Dongxing,-2638156,PPL,populated place,GNS
23.195278,121.021111,village,摩天,Motian,6433174,PPL,populated place,GNS
23.22,121.0125,village,栗園,Liyuan,6433170,PPL,populated place,GNS
22.908673,121.112357,village,五十戶,Wushihu,-2640510,PPL,populated place,GNS
22.966667,121.133333,village,,Taiyuanyuanye,-2637958,PPL,populated place,GNS
22.967938,121.115843,village,武陵,Wuling,-2640443,PPL,populated place,GNS
22.979469,121.138857,village,新豐,Xinfeng,-2637610,PPL,populated place,GNS
22.981955,121.155464,village,瑞和,Ruihe,-2632103,PPL,populated place,GNS
22.989271,121.140966,village,景豐,Jingfeng,-2630158,PPL,populated place,GNS
22.879545,121.19007,village,那界,Najie,-2634365,PPL,populated place,GNS
22.882678,121.217416,village,四缐,Sixian,10039631,PPL,populated place,GNS
22.88426,121.236662,village,舊廍,Jiupou,10039633,PPL,populated place,GNS
22.8933,121.248,village,興昌,Xingchang,-2631109,PPL,populated place,GNS
22.915719,121.192462,village,銅礦,Tongkuang,10039619,PPL,populated place,GNS
22.695833,121.045,village,荒野,Huangye,-2639652,PPL,populated place,GNS
22.716667,121.05,village,,Tianliao,-2638803,PPL,populated place,GNS
22.719444,121.050556,village,下建和,Xiajianhe,-2627652,PPL,populated place,GNS
22.706389,121.040833,village,橋子頭,Qiaozitou,6379231,PPL,populated place,GNS
22.703333,121.026944,village,建岡,Jiangang,6379241,PPL,populated place,GNS
22.696389,121.018611,village,溫泉,Wenquan,6379230,PPL,populated place,GNS
22.691389,120.999444,village,龍泉,Longquan,-2633721,PPL,populated place,GNS
23.24869,120.985048,village,向陽,Xiangyang,-2630511,PPL,populated place,GNS
22.9991,121.127747,village,加平,Jiaping,10039588,PPL,populated place,GNS
23.001667,121.131667,village,加拿,Jiana,-2627397,PPL,populated place,GNS
23.0025,121.123333,village,加和,Jiahe,6433232,PPL,populated place,GNS
22.912961,121.136423,village,鹿野,Luye,-2633914,PPL,populated place,GNS
22.91967,121.116156,village,馬背,Mabei,10039621,PPL,populated place,GNS
22.925696,121.126438,village,高臺,Gaotai,-2632424,PPL,populated place,GNS
22.926798,121.143222,village,鹿寮,Luliao,-2633661,PPL,populated place,GNS
22.928644,121.115011,village,永康,Yongkang,-2641018,PPL,populated place,GNS
22.93355,121.212849,village,鳥心石,Niaoxinshi,10039613,PPL,populated place,GNS
22.94326,121.217318,village,七塊厝,Qikuaicuo,-2627905,PPL,populated place,GNS
22.95,121.2,village,,Duomoluo,-2639162,PPL,populated place,GNS
23.010288,121.269243,village,牧場,Muchang,10027384,PPL,populated place,GNS
23.018311,121.284146,village,花固,Huagu,10027376,PPL,populated place,GNS
23.022399,121.271116,village,馬那漢,Manahan,10027382,PPL,populated place,GNS
23.034444,121.244722,village,大水堀,Dashuiku,6433286,PPL,populated place,GNS
23.036628,121.292739,village,北溪,Beixi,10027413,PPL,populated place,GNS
23.045632,121.268604,village,金都來,Jindulai,10027380,PPL,populated place,GNS
22.693333,121.045556,village,番社,Fanshe,6379257,PPL,populated place,GNS
22.707222,121.053056,village,知本,Zhiben,-2627835,PPL,populated place,GNS
22.719444,121.061389,village,烟寮,Yanliao,6379253,PPL,populated place,GNS
22.737778,121.057222,village,建和,Jianhe,-2627653,PPL,populated place,GNS
22.745556,121.058056,village,上建和,Shangjianhe,6379240,PPL,populated place,GNS
22.7862,121.1156,village,南王,Nanwang,-2634669,PPL,populated place,GNS
23.1375,121.086667,village,嘉寶,Jiabao,6433183,PPL,populated place,GNS
23.166667,121.1,village,,Xiamagu,-2630454,PPL,populated place,GNS
23.155278,121.064444,village,下馬,Xiama,-2630452,PPL,populated place,GNS
22.929929,121.137782,village,永昌,Yongchang,10039616,PPL,populated place,GNS
22.932,121.1287,village,永安村,Yong'ancun,-2640966,PPL,populated place,GNS
22.933147,121.119799,village,上鹿寮,Shangluliao,-2636427,PPL,populated place,GNS
22.939666,121.140934,village,永隆,Yonglong,10039609,PPL,populated place,GNS
22.9556,121.1285,village,永德,Yongde,10039601,PPL,populated place,GNS
22.825206,121.110548,village,頂岩灣,Dingyanwan,-2636482,PPL,populated place,GNS
22.826932,121.097769,village,高臺,Gaotai,-2632423,PPL,populated place,GNS
22.830157,121.093336,village,澱粉,Dianfen,-2638767,PPL,populated place,GNS
23.046111,121.246389,village,彈坑寮,Dankengliao,6433287,PPL,populated place,GNS
23.062222,121.255,village,紅菜寮,Hongcailiao,6433291,PPL,populated place,GNS
22.901303,121.252297,village,羊橋,Yangqiao,10039625,PPL,populated place,GNS
22.926667,121.268333,village,隆昌,Longchang,-2633706,PPL,populated place,GNS
22.773142,121.079236,village,新田,Xintian,-2631358,PPL,populated place,GNS
22.768846,121.128251,village,灰窑子,Huiyaozi,-2633984,PPL,populated place,GNS
22.781004,121.122772,village,卑南,Beinan,-2635433,PPL,populated place,GNS
23.168056,121.041667,village,霧鹿,Wulu,-2640458,PPL,populated place,GNS
23.183333,121.033333,village,,Yibanuo,-2632011,PPL,populated place,GNS
23.211389,121.031944,village,吉木,Jimu,6433325,PPL,populated place,GNS
23.187222,121.021667,village,利稻,Lidao,-2633411,PPL,populated place,GNS
22.834793,121.081835,village,東成,Dongcheng,-2628379,PPL,populated place,GNS
22.8366,121.0929,village,美農,Meinong,10039645,PPL,populated place,GNS
22.837481,121.105176,village,三塊厝,Sankuaicuo,10039642,PPL,populated place,GNS
22.839965,121.097299,village,萬萬,Wanwan,10039641,PPL,populated place,GNS
22.845802,121.093457,village,烟草間,Yancaojian,10039639,PPL,populated place,GNS
22.858,121.091204,village,初鹿,Chulu,-2628648,PPL,populated place,GNS
22.806928,121.125542,village,岩灣,Yanwan,-2630775,PPL,populated place,GNS
22.987778,121.268889,village,中興,Zhongxing,6418759,PPL,populated place,GNS
22.99,121.284167,village,新部落,Xinbuluo,6418727,PPL,populated place,GNS
22.992778,121.290556,village,嘎嘮吧灣,Galaobawan,-2636307,PPL,populated place,GNS
22.997222,121.265556,village,八落安影,Baluo'anying,6418724,PPL,populated place,GNS
22.998021,121.287575,village,泰源,Taiyuan,-2637954,PPL,populated place,GNS
23.002741,121.263068,village,馬達吉達,Madajida,10027385,PPL,populated place,GNS
23.003242,121.271855,village,法落安,Faluo'an,10027386,PPL,populated place,GNS
22.723056,121.108611,village,溝仔裡,Gouzili,6379245,PPL,populated place,GNS
22.7275,121.103333,village,豐源,Fengyuan,-2629627,PPL,populated place,GNS
22.73,121.118056,village,旭村,Xucun,6379210,PPL,populated place,GNS
22.734167,121.123889,village,三脚犁,Sanjiaoli,6379243,PPL,populated place,GNS
22.736389,121.119444,village,豐里,Fengli,-2629535,PPL,populated place,GNS
22.744962,121.117149,village,永樂,Yongle,10039676,PPL,populated place,GNS
22.7511,121.109104,village,康樂,Kangle,-2632232,PPL,populated place,GNS
23.108889,121.202222,village,上新興,Shangxinxing,6433277,PPL,populated place,GNS
23.088889,121.184722,village,東明,Dongming,6433270,PPL,populated place,GNS
23.097222,121.180278,village,忠慶,Zhongqing,6433271,PPL,populated place,GNS
23.092222,121.178056,village,德高,Degao,6433303,PPL,populated place,GNS
23.101389,121.178333,village,西庄,Xizhuang,6433302,PPL,populated place,GNS
23.095,121.175,village,山平,Shanping,6433242,PPL,populated place,GNS
23.101667,121.176389,village,海端,Haiduan,-2629887,PPL,populated place,GNS
23.109167,121.1775,village,日新,Rixin,6433272,PPL,populated place,GNS
23.108333,121.173333,village,隴下,Longxia,6433241,PPL,populated place,GNS
23.1,121.166667,village,,Xinwu,-2631414,PPL,populated place,GNS
23.1175,121.167778,village,初來,Chulai,-2628628,PPL,populated place,GNS
22.812725,121.101079,village,後湖,Houhu,-2630118,PPL,populated place,GNS
22.802964,121.095766,village,下檳榔,Xiabinlang,10039647,PPL,populated place,GNS
22.808731,121.091264,village,檳榔,Binlang,-2635745,PPL,populated place,GNS
22.813303,121.089452,village,頂永豐,Dingyongfeng,-2626869,PPL,populated place,GNS
23.008889,121.174722,village,電光,Dianguang,-2638795,PPL,populated place,GNS
23.01,121.151944,village,盛豐,Shengfeng,6433257,PPL,populated place,GNS
23.017778,121.176667,village,東興,Dongxing,6433262,PPL,populated place,GNS
23.033333,121.183333,village,,Rishecun,-2632090,PPL,populated place,GNS
23.036667,121.163889,village,隆興,Longxing,6433265,PPL,populated place,GNS
22.983333,121.3,village,,Taiyuansuidao,-2637957,PPL,populated place,GNS
22.666667,120.866667,village,,Xinwei,-2631408,PPL,populated place,GNS
22.716667,120.866667,village,,Lajia,-2633051,PPL,populated place,GNS
22.743889,121.136389,village,豐榮,Fengrong,6379268,PPL,populated place,GNS
23.008333,121.130556,village,加樂,Jiale,-2627358,PPL,populated place,GNS
23.013333,121.144167,village,山顺,Shanshun,6433317,PPL,populated place,GNS
23.014167,121.151667,village,中和,Zhonghe,6433318,PPL,populated place,GNS
23.026111,121.143889,village,山富,Shanfu,6433316,PPL,populated place,GNS
23.029167,121.1825,village,嘉武,Jiawu,-2627549,PPL,populated place,GNS
23.043889,121.168889,village,新福,Xinfu,-2631107,PPL,populated place,GNS
23.045556,121.144722,village,崁頂,Kanding,-2632317,PPL,populated place,GNS
23.047778,121.162778,village,關山,Guanshan,-2632669,PPL,populated place,GNS
23.054444,121.177778,village,溪埔,Xibu,6433268,PPL,populated place,GNS
23.061944,121.1675,village,昌林,Changlin,6433248,PPL,populated place,GNS
22.7547,121.0982,village,中康樂,Zhongkangle,10039675,PPL,populated place,GNS
22.762169,121.066092,village,新園,Xinyuan,10039665,PPL,populated place,GNS
22.770384,121.111639,village,豐年,Fengnian,10039667,PPL,populated place,GNS
22.774779,121.085228,village,田寮,Tianliao,-2638804,PPL,populated place,GNS
22.7748,121.0905,village,豐田,Fengtian,-2640692,PPL,populated place,GNS
22.783333,121.116667,village,,Daqiao,-2637605,PPL,populated place,GNS
22.783333,121.116667,village,,Rongyuzhijia,-2632142,PPL,populated place,GNS
22.52,120.879167,village,近黃,Jinhuang,6433419,PPL,populated place,GNS
22.7832,121.1608,village,石川,Shichuan,-2630265,PPL,populated place,GNS
22.281389,120.864722,village,森永,Senyong,-2636296,PPL,populated place,GNS
22.293333,120.866667,village,安朔,Anshuo,-2626928,PPL,populated place,GNS
22.244722,120.835556,village,壽峠,Shouqia,-2637094,PPL,populated place,GNS
23.426972,121.469576,village,北溪,Beixi,10035485,PPL,populated place,GNS
23.425281,121.458633,village,中坑,Zhongkeng,10161733,PPL,populated place,GNS
23.400518,121.428814,village,小嘉義,Xiaojiayi,10161759,PPL,populated place,GNS
23.375113,121.445756,village,鷹仔嘴,Yinzizui,10161747,PPL,populated place,GNS
23.399459,121.456042,village,南溪,Nanxi,10161746,PPL,populated place,GNS
23.404992,121.449255,village,大坪頂,Dapingding,-2638362,PPL,populated place,GNS
23.415932,121.463344,village,中溪,Zhongxi,10035488,PPL,populated place,GNS
23.074167,121.179167,village,東庄,Dongzhuang,6433269,PPL,populated place,GNS
23.083056,121.177778,village,頂庄,Dingzhuang,-2638952,PPL,populated place,GNS
23.071944,121.174444,village,永豐,Yongfeng,-2638690,PPL,populated place,GNS
23.083611,121.171111,village,永盛,Yongsheng,6433243,PPL,populated place,GNS
23.065833,121.160556,village,紅石,Hongshi,-2631839,PPL,populated place,GNS
22.786606,121.080235,village,北份子寮,Beifenziliao,10039654,PPL,populated place,GNS
22.788312,121.085882,village,太平,Taiping,-2637888,PPL,populated place,GNS
22.793295,121.093314,village,北份寮,Beifenliao,10039651,PPL,populated place,GNS
22.794724,121.105791,village,十股,Shigu,10039649,PPL,populated place,GNS
22.910248,121.181319,village,坪林,Pinglin,10039884,PPL,populated place,GNS
22.914788,121.153268,village,梅山,Meishan,10039620,PPL,populated place,GNS
22.924418,121.175165,village,頭教溪,Toujiaoxi,10039618,PPL,populated place,GNS
22.93098,121.186227,village,上野,Shangye,10039614,PPL,populated place,GNS
22.577778,120.873611,village,介達村,Jiedacun,-2627600,PPL,populated place,GNS
22.5925,120.824167,village,比魯,Bilu,-2635650,PPL,populated place,GNS
22.583333,120.8,village,,Baosheng,-2635261,PPL,populated place,GNS
23.334426,121.442073,village,犁頭針,Litouzhen,10161757,PPL,populated place,GNS
23.363608,121.449364,village,熊崙,Xionglun,10161749,PPL,populated place,GNS
23.367273,121.455131,village,群崙,Qunlun,10161748,PPL,populated place,GNS
23.32148,121.449167,village,中城,Zhongcheng,-2628687,PPL,populated place,GNS
23.307346,121.441282,village,下田組,Xiatianzu,-2638875,PPL,populated place,GNS
23.326141,121.439058,village,忠勇,Zhongyong,-2629020,PPL,populated place,GNS
23.331843,121.437072,village,上田組,Shangtianzu,10161756,PPL,populated place,GNS
23.139167,121.2,village,萬朝,Wanchao,-2640003,PPL,populated place,GNS
23.145278,121.196111,village,山脚,Shanjiao,6433197,PPL,populated place,GNS
23.131944,121.187222,village,陸安,Lu'an,6433273,PPL,populated place,GNS
23.130556,121.174444,village,錦屏,Jinping,-2628182,PPL,populated place,GNS
23.132778,121.123889,village,新武,Xinwu,-2631415,PPL,populated place,GNS
23.129722,121.115556,village,坑尾,Kengwei,6433308,PPL,populated place,GNS
23.046111,121.196944,village,振興,Zhenxing,-2627251,PPL,populated place,GNS
22.934038,121.170322,village,石綿,Shimian,10039615,PPL,populated place,GNS
22.937901,121.160868,village,新良,Xinliang,-2631252,PPL,populated place,GNS
22.9483,121.172337,village,后湖,Houhu,10039604,PPL,populated place,GNS
22.951952,121.165119,village,坪頂,Pingding,10039605,PPL,populated place,GNS
22.952625,121.157246,village,瑞隆,Ruilong,10039606,PPL,populated place,GNS
22.954422,121.161056,village,層平,Cengping,10039890,PPL,populated place,GNS
22.95532,121.157994,village,廣興,Guangxing,-2638451,PPL,populated place,GNS
22.959567,121.157661,village,瑞源,Ruiyuan,-2632122,PPL,populated place,GNS
22.253611,120.841111,village,歸田,Guitian,6418707,PPL,populated place,GNS
22.281111,120.845833,village,阿塱衛,Alangwei,-2626855,PPL,populated place,GNS
22.280278,120.824167,village,舊安朔,Jiu'anshuo,6418709,PPL,populated place,GNS
22.374444,120.883611,village,大鳥萬,Daniaowan,-2638219,PPL,populated place,GNS
22.36,120.879167,village,加羅坂,Jialuofan,6418689,PPL,populated place,GNS
22.358333,120.866111,village,加拉坂,Jialafan,-2632155,PPL,populated place,GNS
22.383889,120.865,village,鳥萬溪頭,Niaowanxitou,6418681,PPL,populated place,GNS
22.376389,120.858056,village,伊喬莫,Yiqiaomo,6418684,PPL,populated place,GNS
22.381111,120.8575,village,新化,Xinhua,-2631195,PPL,populated place,GNS
23.306092,121.418247,village,齒草坑,Chicaokeng,10161779,PPL,populated place,GNS
23.296141,121.432702,village,永福,Yongfu,-2640996,PPL,populated place,GNS
23.3,121.433333,village,,Saobiezi,-2636292,PPL,populated place,GNS
23.292711,121.415574,village,牛湖,Niuhu,-2630472,PPL,populated place,GNS
23.273662,121.425961,village,下崁,Xiakan,10161751,PPL,populated place,GNS
23.283795,121.427907,village,竹湖,Zhuhu,-2628579,PPL,populated place,GNS
23.284939,121.422999,village,鹿寮溝,Luliaogou,10161753,PPL,populated place,GNS
23.091667,121.2125,village,龍仔尾,Longziwei,6433280,PPL,populated place,GNS
23.092222,121.221944,village,魏厝,Weicuo,6433247,PPL,populated place,GNS
23.093611,121.219167,village,萬安,Wan'an,-2639999,PPL,populated place,GNS
23.102778,121.205,village,下新興,Xiaxinxing,6433278,PPL,populated place,GNS
23.103056,121.221667,village,錦園,Jinyuan,-2628224,PPL,populated place,GNS
23.106667,121.2075,village,新興,Xinxing,-2631166,PPL,populated place,GNS
23.119167,121.214167,village,大埔,Dabu,-2638423,PPLX,populated place,GNS
23.1225,121.231944,village,大坡,Dapo,-2638406,PPL,populated place,GNS
23.125,121.216667,village,池上,Chishang,-2627848,PPL,populated place,GNS
23.129444,121.230556,village,慶豐,Qingfeng,-2628007,PPL,populated place,GNS
22.964066,121.178559,village,木坑,Mukeng,10039599,PPL,populated place,GNS
22.97466,121.172974,village,寳華,Baohua,10039596,PPL,populated place,GNS
22.976762,121.156076,village,瑞興,Ruixing,10039595,PPL,populated place,GNS
22.99321,121.174367,village,南興,Nanxing,10039590,PPL,populated place,GNS
22.369722,120.85,village,苗圃,Miaobu,6418686,PPL,populated place,GNS
22.393611,120.854167,village,森茂,Senmao,6418679,PPL,populated place,GNS
22.389444,120.852778,village,新生,Xinsheng,6418685,PPL,populated place,GNS
22.403056,120.848333,village,著加拉,Zhuojiala,-2628439,PPL,populated place,GNS
22.374444,120.840556,village,姑子崙,Guzilun,-2633042,PPL,populated place,GNS
22.324444,120.771389,village,内加芝來,Neijiazhilai,-2627311,PPL,populated place,GNS
22.48,120.913611,village,拉里巴,Laliba,-2633077,PPL,populated place,GNS
22.4775,120.908056,village,臺坂,Taifan,-2637834,PPL,populated place,GNS
22.486667,120.9025,village,爵阿埔旺,Jue'abuwang,6418661,PPL,populated place,GNS
22.480833,120.899444,village,吉加里斯,Jijialisi,6418660,PPL,populated place,GNS
22.004167,121.592222,village,龍頭,Longtou,6333659,PPL,populated place,GNS
23.253173,121.417854,village,白桑安,Baisang'an,-2635295,PPL,populated place,GNS
23.275243,121.422261,village,南竹湖,Nanzhuhu,-2634418,PPL,populated place,GNS
23.259691,121.418133,village,城山,Chengshan,-2627234,PPL,populated place,GNS
23.2562,121.411506,village,柵風愛,Zhafeng'ai,10161782,PPL,populated place,GNS
23.271834,121.409481,village,石門巷,Shimenxiang,10161783,PPL,populated place,GNS
23.295173,121.403719,village,咬人狗湖,Yaorengouhu,10161787,PPL,populated place,GNS
23.262729,121.392758,village,嘰卡拉袋,Jikaladai,10161785,PPL,populated place,GNS
22.886111,120.938611,village,桃林,Taolin,-2638291,PPL,populated place,GNS
22.999722,121.177222,village,廣興,Guangxing,6433260,PPL,populated place,GNS
22.862091,121.136353,village,山里,Shanli,-2636504,PPL,populated place,GNS
22.882026,121.142273,village,和平,Heping,-2630035,PPL,populated place,GNS
22.887639,121.16005,village,榕山,Rongshan,-2631424,PPL,populated place,GNS
22.892713,121.138256,village,擺子擺,Baizibai,10039871,PPL,populated place,GNS
22.9,121.166667,village,,Zhongyeshe,-2629010,PPL,populated place,GNS
22.486389,120.885278,village,拖狗,Tuogou,-2639153,PPL,populated place,GNS
22.473889,120.875278,village,爵巴里,Juebali,6418656,PPL,populated place,GNS
22.483889,120.877222,village,臺坂溪頭,Taifanxitou,6418655,PPL,populated place,GNS
22.462222,120.869444,village,德巴吉,Debaji,6418658,PPL,populated place,GNS
22.465833,120.863611,village,凱西亞,Kaixiya,6418657,PPL,populated place,GNS
22.488333,120.863889,village,古達卡斯,Gudakasi,6418654,PPL,populated place,GNS
22.5,120.866667,village,,Toyage,-2639262,PPL,populated place,GNS
22.465,120.853889,village,張仁木,Zhangrenmu,6418723,PPL,populated place,GNS
22.477222,120.839444,village,大谷社,Dagushe,-2638013,PPL,populated place,GNS
23.24591,121.363298,village,大莊越,Dazhuangyue,10027330,PPL,populated place,GNS
23.230306,121.413381,village,南烏石鼻,Nanwushibi,-2640514,PPL,populated place,GNS
23.235219,121.413303,village,北烏石鼻,Beiwushibi,-2635545,PPL,populated place,GNS
23.244031,121.415641,village,寧埔,Ningbu,-2634869,PPL,populated place,GNS
22.766357,121.030543,village,比利良,Bililiang,10039663,PPL,populated place,GNS
22.767546,121.045065,village,東園,Dongyuan,10039664,PPL,populated place,GNS
22.810238,121.053117,village,上太平,Shangtaiping,-2636461,PPL,populated place,GNS
22.900793,121.152344,village,鸞山,Luanshan,-2633606,PPL,populated place,GNS
22.905759,121.184001,village,松林,Songlin,10039623,PPL,populated place,GNS
22.759912,121.144569,village,臺東,Taidong,-2637928,PPLA,populated place,GNS
22.761688,121.123369,village,下康樂,Xiakangle,10039672,PPL,populated place,GNS
22.45,120.9,village,,Jiakuobucun,-2627349,PPL,populated place,GNS
22.455833,120.8875,village,新高社,Xingaoshe,-2631234,PPL,populated place,GNS
22.453611,120.886944,village,土坂,Tufan,-2636388,PPL,populated place,GNS
22.446667,120.88,village,巴巴拉崙,Babalalun,6418671,PPL,populated place,GNS
22.443333,120.874167,village,新興,Xinxing,-2631163,PPL,populated place,GNS
22.431667,120.865,village,他巴卡斯,Tabaqiasi,-2638328,PPL,populated place,GNS
22.426111,120.8625,village,大坂槽,Dafancao,6418673,PPL,populated place,GNS
22.453889,120.863611,village,民佳站,Minjiazhan,6418659,PPL,populated place,GNS
22.416944,120.844167,village,紹家,Shaojia,-2636585,PPL,populated place,GNS
22.410556,120.836389,village,柿子埔社,Shizibushe,-2636939,PPL,populated place,GNS
23.246972,121.41228,village,光榮,Guangrong,10027342,PPL,populated place,GNS
23.209246,121.398562,village,宜灣,Yiwan,-2636300,PPL,populated place,GNS
23.22403,121.386788,village,堤烏岡,Tiwugang,10027341,PPL,populated place,GNS
23.252895,121.387173,village,移民,Yimin,10161784,PPL,populated place,GNS
23.192718,121.395117,village,重安,Chong'an,-2628681,PPL,populated place,GNS
23.164409,121.370731,village,小坑,Xiaokeng,10027326,PPL,populated place,GNS
22.871372,121.055614,village,上里,Shangli,-2636423,PPL,populated place,GNS
22.912633,121.093629,village,鹿鳴,Luming,-2633685,PPL,populated place,GNS
22.939499,121.074815,village,老公寮,Laogongliao,10039608,PPL,populated place,GNS
22.791468,121.152473,village,下農場,Xianongchang,10039658,PPL,populated place,GNS
22.806787,121.153644,village,富源,Fuyuan,-2629820,PPL,populated place,GNS
23.034722,121.188611,village,嘉文,Jiawen,6433304,PPL,populated place,GNS
23.0425,121.190833,village,大水湖,Dashuihu,6433267,PPL,populated place,GNS
23.05,121.2,village,,Baimaoliao,-2635066,PPL,populated place,GNS
23.050278,121.225833,village,北坑,Beikeng,6433288,PPL,populated place,GNS
23.06,121.229444,village,石公厝,Shigongcuo,6433290,PPL,populated place,GNS
23.066111,121.231667,village,山棕寮,Shanzongliao,6433292,PPL,populated place,GNS
22.457778,120.840833,village,納涼,Naliang,-2634368,PPL,populated place,GNS
22.416667,120.816667,village,,Gulun,-2632842,PPL,populated place,GNS
22.387222,120.896389,village,達萬,Dawan,6418680,PPL,populated place,GNS
22.401667,120.895833,village,初屯,Chutun,-2629127,PPL,populated place,GNS
22.521389,120.914167,village,莫哥布各,Mogebuge,6433430,PPL,populated place,GNS
22.525833,120.926667,village,歷坵,Liqiu,-2633224,PPL,populated place,GNS
22.530278,120.94,village,溫泉,Wenquan,6433435,PPL,populated place,GNS
22.533333,120.933333,village,,Xiaojinlun,-2630533,PPL,populated place,GNS
23.137686,121.362167,village,興農,Xingnong,10027442,PPL,populated place,GNS
23.14398,121.355827,village,石棺,Shiguan,10027439,PPL,populated place,GNS
23.127956,121.346141,village,瀑布下,Pubuxia,10027437,PPL,populated place,GNS
23.123333,121.238889,village,北溪,Beixi,6433171,PPL,populated place,GNS
23.145413,121.370147,village,煙筒仔坑,Yantongzikeng,10027329,PPL,populated place,GNS
23.088593,121.355111,village,下麒麟,Xiaqilin,10027419,PPL,populated place,GNS
23.093749,121.356422,village,麒麟,Qilin,-2627933,PPL,populated place,GNS
23.095657,121.358695,village,北麒麟,Beiqilin,10027424,PPL,populated place,GNS
23.107386,121.359691,village,橘子山,Juzishan,10027417,PPL,populated place,GNS
22.897243,121.095835,village,四維,Siwei,10039693,PPL,populated place,GNS
22.889362,121.093647,village,舊鹿鳴,Jiuluming,10039627,PPL,populated place,GNS
22.892497,121.08185,village,下中里,Xiazhongli,10039892,PPL,populated place,GNS
22.9034,121.0838,village,桃源,Taoyuan,-2638314,PPL,populated place,GNS
22.897632,121.076152,village,下里,Xiali,-2630410,PPL,populated place,GNS
23.071667,121.217778,village,水墜,Shuizhui,-2637204,PPL,populated place,GNS
22.860674,121.200984,village,新蘭,Xinlan,-2634364,PPL,populated place,GNS
22.82194,121.189944,village,漁場,Yuchang,-2635440,PPL,populated place,GNS
22.8288,121.1863,village,荊桐,Jingtong,-2633423,PPL,populated place,GNS
22.8526,121.1921,village,郡界,Junjie,-2628671,PPL,populated place,GNS
22.839153,121.187844,village,杉原,Shanyuan,-2636584,PPL,populated place,GNS
22.591667,120.945278,village,布查其蘭,Buchaqilan,6433393,PPL,populated place,GNS
22.593889,120.961389,village,嘉蘭,Jialan,-2627353,PPLX,populated place,GNS
22.595,120.960556,village,金峰,Jinfeng,6433463,PPL,populated place,GNS
22.456667,120.922222,village,工作地,Gongzuodi,6418664,PPL,populated place,GNS
22.621389,121.001667,village,沙崙,Shalun,6433378,PPL,populated place,GNS
22.606667,120.995278,village,,Jiebicun,-2627597,PPL,populated place,GNS
22.614167,120.990278,village,佳倫,Jialun,6433383,PPL,populated place,GNS
23.095659,121.346319,village,上麒麟,Shangqilin,-2636377,PPL,populated place,GNS
23.081944,121.236389,village,保甲園,Baojiayuan,6433293,PPL,populated place,GNS
23.083056,121.222222,village,富興,Fuxing,-2629726,PPL,populated place,GNS
23.095,121.234167,village,鳳梨園,Fengliyuan,6433165,PPL,populated place,GNS
23.096273,121.267483,village,鼈溪越,Biexiyue,10027375,PPL,populated place,GNS
23.104444,121.235556,village,嶺頂,Lingding,6433190,PPL,populated place,GNS
22.900526,121.066097,village,舊紅葉,Jiuhongye,10039622,PPL,populated place,GNS
22.893706,121.062693,village,紅葉,Hongye,-2631856,PPL,populated place,GNS
22.877936,121.054694,village,清水,Qingshui,10039629,PPL,populated place,GNS
22.758603,121.051297,village,蘇巴陽,Subayang,10039674,PPL,populated place,GNS
22.775332,121.063276,village,利嘉村,Lijiacun,-2633217,PPL,populated place,GNS
22.795097,121.067176,village,泰安,Tai'an,10039872,PPL,populated place,GNS
22.835806,121.068461,village,水頭,Shuitou,10039646,PPL,populated place,GNS
22.86096,121.154908,village,阿幫安,Abang'an,10039637,PPL,populated place,GNS
22.825946,121.132985,village,利吉,Liji,-2633221,PPL,populated place,GNS
22.777773,121.174434,village,海堡,Haibao,10039661,PPL,populated place,GNS
22.793018,121.187346,village,富岡,Fugang,79840,PPL,populated place,GNS
22.8,121.183333,village,,Shishan,-2636960,PPL,populated place,GNS
22.8,121.183333,village,,Yushanxincun,-2641061,PPL,populated place,GNS
22.8109,121.1877,village,加路蘭,Jialulan,-2627387,PPL,populated place,GNS
22.5975,120.9725,village,橋頭,Qiaotou,6433458,PPL,populated place,GNS
22.601111,120.835833,village,斗里斗里社,Doulidoulishe,-2639220,PPL,populated place,GNS
22.6,120.833333,village,,Songwuluo,-2637556,PPL,populated place,GNS
22.640556,121.014444,village,新吉,Xinji,-2637863,PPL,populated place,GNS
22.629722,121.0075,village,北太麻里,Beitaimali,-2635503,PPL,populated place,GNS
22.634444,121.000833,village,新興,Xinxing,6433376,PPL,populated place,GNS
22.641944,121.001667,village,三條坑,Santiaokeng,6433375,PPL,populated place,GNS
22.651667,120.993611,village,薑母寮,Jiangmuliao,6433371,PPL,populated place,GNS
22.6625,120.993333,village,森川,Senchuan,6433370,PPL,populated place,GNS
22.418611,120.861389,village,埔里雅社,Puliyashe,-2635972,PPL,populated place,GNS
22.401171,120.757432,village,,Qinshuiying,-2628209,PPL,populated place,GNS
22.373952,120.90252,village,汀掛,Dinggua,6418682,PPL,populated place,GNS
22,121.566667,village,,Fuxingnongzhuang,-2629722,PPL,populated place,GNS
22.023333,121.559444,village,中興農莊,Zhongxingnongzhuang,-2628790,PPL,populated place,GNS
22.066667,121.5,village,,Dingxingnongzhuang,-2638991,PPL,populated place,GNS
22.050833,121.512778,village,椰油,Yeyou,-2640669,PPL,populated place,GNS
22.037222,121.5675,village,野銀,Yeyin,-2640668,PPL,populated place,GNS
22.0275,121.542778,village,漁人,Yuren,-2640930,PPL,populated place,GNS
22.078611,121.512778,village,五孔洞,Wukongdong,-2640420,PPL,populated place,GNS
22.057778,121.564444,village,東清,Dongqing,-2639562,PPL,populated place,GNS
22.010833,121.5725,village,四道溝,Sidaogou,-2637470,PPL,populated place,GNS
22.025556,121.554444,village,紅頭,Hongtou,-2633109,PPL,populated place,GNS
22.083333,121.616667,village,,Langdaoxi,-2633082,PPL,populated place,GNS
22.078333,121.528889,village,朗島,Langdao,-2633081,PPL,populated place,GNS
22.016667,121.583333,village,,Longmen,-2633758,PPL,populated place,GNS
22.057222,121.51,village,開元港,Kaiyuangang,-2632152,PPL,populated place,GNS
