lat,lon,place,name,name:en,GNS:id,GNS:dsg_code,GNS:dsg_string,source
24.837778,121.006111,hamlet,竹北口,Zhubeikou,6431384,PPLX,populated place,GNS
24.838333,121.007778,hamlet,竹北,Zhubei,-2629070,PPLA,populated place,GNS
24.840833,121.016389,hamlet,番子坡,Fanzipo,-2629381,PPLX,populated place,GNS
24.841944,120.998889,hamlet,新社,Xinshe,-2631331,PPLX,populated place,GNS
24.844444,121.016944,hamlet,泰和,Taihe,6404976,PPL,populated place,GNS
24.845,121.027778,hamlet,新瓦屋,Xinwawu,6405160,PPL,populated place,GNS
24.847778,121.031667,hamlet,下排子,Xiapaizi,-2630649,PPL,populated place,GNS
24.85,121.033333,hamlet,,Yiminmiao,-2632009,PPL,populated place,GNS
24.850278,121.001944,hamlet,泰和村,Taihecun,6431207,PPL,populated place,GNS
24.857222,121.013056,hamlet,鳳山崎,Fengshanqi,-2629575,PPL,populated place,GNS
24.86,121.001111,hamlet,鳳山崎,Fengshanqi,6431371,PPL,populated place,GNS
24.861944,121.023889,hamlet,竹高屋,Zhugaowu,-2628607,PPL,populated place,GNS
24.815278,121.026111,hamlet,六家,Liujia,-2633440,PPL,populated place,GNS
24.816389,121.020278,hamlet,十張犁,Shizhangli,-2636739,PPL,populated place,GNS
24.816667,121.016667,hamlet,,Jiezhi,-2627588,PPL,populated place,GNS
24.7875,121.188611,hamlet,湖肚,Hudu,-2634282,PPL,populated place,GNS
24.789444,121.181667,hamlet,下三屯,Xiasantun,-2639537,PPL,populated place,GNS
24.792778,121.187222,hamlet,圳頭牌,Zhentoupai,6404872,PPL,populated place,GNS
24.799444,121.198611,hamlet,上三屯,Shangsantun,-2636445,PPL,populated place,GNS
24.780833,121.174444,hamlet,渡船頭,Duchuantou,6405097,PPL,populated place,GNS
24.7925,121.177222,hamlet,關西,Guanxi,-2632655,PPL,populated place,GNS
24.635278,121.12,hamlet,林家莊,Linjiazhuang,6438211,PPL,populated place,GNS
24.619167,121.113889,hamlet,和平,Heping,-2629628,PPL,populated place,GNS
24.643056,121.115833,hamlet,舊十八兒,Jiushiba'er,6438214,PPL,populated place,GNS
24.629722,121.107222,hamlet,泰平,Taiping,6438210,PPL,populated place,GNS
24.616389,121.1025,hamlet,茅圃,Maobu,-2634069,PPL,populated place,GNS
24.619167,121.101944,hamlet,高峯,Gaofeng,6438319,PPL,populated place,GNS
24.628056,121.100833,hamlet,大隘,Da'ai,-2637569,PPL,populated place,GNS
24.628333,121.091111,hamlet,大隘社,Da'aishe,6438209,PPL,populated place,GNS
24.679722,121.246667,hamlet,那羅,Naluo,-2636961,PPL,populated place,GNS
24.683333,121.25,hamlet,,Jinping,-2628183,PPL,populated place,GNS
24.687778,121.253611,hamlet,社口,Shekou,6438279,PPL,populated place,GNS
24.709444,121.268056,hamlet,八五山,Bawushan,-2635333,PPL,populated place,GNS
24.866667,120.95,hamlet,,Kantoucuo,-2632340,PPL,populated place,GNS
24.868056,120.9525,hamlet,田心子,Tianxinzi,6431325,PPL,populated place,GNS
24.876667,120.954167,hamlet,羊寮港,Yangliaogang,6431324,PPL,populated place,GNS
24.905,120.985556,hamlet,新豐,Xinfeng,-2631081,PPL,populated place,GNS
24.901389,120.976944,hamlet,紅崎頂,Hongqiding,6431366,PPL,populated place,GNS
24.914444,120.975278,hamlet,新豐,Xinfeng,-2631820,PPL,populated place,GNS
24.905556,120.971111,hamlet,樹林子,Shulinzi,-2637351,PPL,populated place,GNS
24.901389,120.968611,hamlet,頂鳳尾鼻,Dingfengweibi,-2638970,PPL,populated place,GNS
24.911944,120.97,hamlet,下茹寮,Xiaruliao,6431323,PPL,populated place,GNS
24.822222,121.012222,hamlet,頂斗崙,Dingdoulun,-2639109,PPL,populated place,GNS
24.807778,121.006944,hamlet,九甲埔,Jiujiabu,-2628283,PPL,populated place,GNS
24.8125,121,hamlet,二十張犂,Ershizhangli,-2627249,PPL,populated place,GNS
24.808056,120.9975,hamlet,溪洲,Xizhou,-2630835,PPL,populated place,GNS
24.682452,120.98626,hamlet,茅埔,Maobu,-2630969,PPL,populated place,GNS
24.683262,120.982636,hamlet,西河排,Xihepai,-2630896,PPL,populated place,GNS
24.688374,120.988054,hamlet,富興,Fuxing,-2629690,PPL,populated place,GNS
24.689546,120.970914,hamlet,焿寮坑,Ganliaokeng,-2638198,PPL,populated place,GNS
24.697662,120.993906,hamlet,獅頭坪,Shitouping,-2637009,PPL,populated place,GNS
24.7,120.966667,hamlet,,Shuiliu,-2637235,PPL,populated place,GNS
24.700348,120.991927,hamlet,富興頭,Fuxingtou,-2629724,PPL,populated place,GNS
24.700565,120.954454,hamlet,坪頂,Pingding,-2635722,PPL,populated place,GNS
24.792778,121.171389,hamlet,崎下,Qixia,6405139,PPL,populated place,GNS
24.788889,121.168056,hamlet,上南片,Shangnanpian,6405141,PPL,populated place,GNS
24.794444,121.166389,hamlet,龍眼樹下,Longyanshuxia,6405140,PPL,populated place,GNS
24.8,121.163889,hamlet,店子岡,Dianzigang,-2635458,PPL,populated place,GNS
24.797222,121.159444,hamlet,福德,Fude,6405371,PPL,populated place,GNS
24.799167,121.155278,hamlet,南山,Nanshan,-2634567,PPL,populated place,GNS
24.791389,121.147222,hamlet,東坑,Dongkeng,-2639656,PPL,populated place,GNS
24.790278,121.143611,hamlet,上橫坑,Shanghengkeng,6405249,PPL,populated place,GNS
24.786944,121.14,hamlet,西坑,Xikeng,-2630932,PPL,populated place,GNS
24.801667,121.14,hamlet,坪林,Pinglin,-2635695,PPL,populated place,GNS
24.776389,121.261944,hamlet,鳥嘴,Niaozui,-2634856,PPL,populated place,GNS
24.781667,121.256111,hamlet,西浪,Xilang,6405040,PPL,populated place,GNS
24.78,121.251944,hamlet,鄭統領,Zhengtongling,6405384,PPL,populated place,GNS
24.783056,121.246111,hamlet,石牛坑,Shiniukeng,6405039,PPL,populated place,GNS
24.777222,121.240833,hamlet,李樹下,Lishuxia,6405041,PPL,populated place,GNS
24.719167,121.266944,hamlet,煤源,Meiyuan,-2634217,PPL,populated place,GNS
24.720833,121.284167,hamlet,鳥嘴,Niaozui,-2634855,PPL,populated place,GNS
24.721944,121.263333,hamlet,拉號,Lahao,6340952,PPL,populated place,GNS
24.726111,121.251389,hamlet,拉號,Lahao,6438286,PPL,populated place,GNS
24.736389,121.259722,hamlet,水田,Shuitian,-2637273,PPL,populated place,GNS
24.667778,121.294444,hamlet,李埔,Libu,-2633278,PPL,populated place,GNS
24.681111,121.295,hamlet,馬石,Mashi,-2634133,PPL,populated place,GNS
24.606667,121.283889,hamlet,錦路,Jinlu,-2628159,PPL,populated place,GNS
24.611667,121.296389,hamlet,泰崗,Taigang,-2637573,PPL,populated place,GNS
24.618056,121.285556,hamlet,秀巒,Xiuluan,-2631581,PPL,populated place,GNS
24.707037,120.925828,hamlet,頂大埔,Dingdabu,10019592,PPL,populated place,GNS
24.9,120.95,hamlet,,Xiakengcun,-2630393,PPL,populated place,GNS
24.922778,120.988056,hamlet,埔頂,Buding,-2635934,PPL,populated place,GNS
24.926667,120.988889,hamlet,後厝子,Houcuozi,6431367,PPL,populated place,GNS
24.925556,120.988056,hamlet,埔頭,Butou,6431400,PPL,populated place,GNS
24.919167,120.984722,hamlet,新和,Xinhe,6431368,PPL,populated place,GNS
24.924722,120.984444,hamlet,李厝,Licuo,6431369,PPL,populated place,GNS
24.920556,120.982222,hamlet,埔和,Buhe,-2635880,PPL,populated place,GNS
24.926667,120.982222,hamlet,陂子頭,Pozitou,-2635845,PPL,populated place,GNS
24.917222,120.978333,hamlet,大莊,Dazhuang,6431273,PPL,populated place,GNS
24.922778,120.979167,hamlet,朱厝,Zhucuo,6431283,PPL,populated place,GNS
24.916389,120.976389,hamlet,下外湖,Xiawaihu,6431446,PPL,populated place,GNS
24.918333,120.975556,hamlet,翁厝,Wengcuo,6431364,PPL,populated place,GNS
24.916667,120.970833,hamlet,外湖,Waihu,-2639950,PPL,populated place,GNS
24.916667,120.95,hamlet,,Gonghe,-2632857,PPL,populated place,GNS
24.893056,120.987222,hamlet,大埔,Dabu,-2638433,PPL,populated place,GNS
24.882778,120.979722,hamlet,山子頂,Shanziding,-2636571,PPL,populated place,GNS
24.704255,120.995165,hamlet,洽坑,Xiakeng,10019636,PPL,populated place,GNS
24.704821,120.980133,hamlet,三十股,Sanshigu,10019593,PPL,populated place,GNS
24.704955,120.965669,hamlet,水流東,Shuiliudong,-2637241,PPL,populated place,GNS
24.711797,120.994682,hamlet,石龍,Shilong,10019551,PPL,populated place,GNS
24.712252,120.978564,hamlet,八股,Bagu,10019797,PPL,populated place,GNS
24.716573,121.002178,hamlet,三峯,Sanfeng,10019550,PPL,populated place,GNS
24.716667,120.95,hamlet,,Baodouren,-2635269,PPL,populated place,GNS
24.720516,120.990349,hamlet,油車坡,Youchepo,10019790,PPL,populated place,GNS
24.723736,120.980229,hamlet,柑子崎,Ganziqi,-2632346,PPL,populated place,GNS
24.730345,120.98454,hamlet,八分寮,Bafenliao,-2635017,PPL,populated place,GNS
24.733333,120.983333,hamlet,,Sanchatu,-2636004,PPL,populated place,GNS
24.733471,120.979342,hamlet,東坑,Dongkeng,10019451,PPL,populated place,GNS
24.736953,121.003422,hamlet,石坪,Shiping,10019672,PPL,populated place,GNS
24.738741,120.997054,hamlet,三條坑,Santiaokeng,10019671,PPL,populated place,GNS
24.741111,121.010278,hamlet,洽水,Xiashui,-2630716,PPL,populated place,GNS
24.742094,121.001979,hamlet,火燒崙,Huoshaolun,10019548,PPL,populated place,GNS
24.746111,121.012222,hamlet,山檯,Shantai,6438381,PPL,populated place,GNS
24.791111,121.129722,hamlet,新興,Xinxing,6405395,PPL,populated place,GNS
24.791389,121.1275,hamlet,下橫坑,Xiahengkeng,-2630350,PPL,populated place,GNS
24.773333,121.118889,hamlet,赤柯寮,Chikeliao,-2627807,PPL,populated place,GNS
24.767778,121.262222,hamlet,蓮包,Lianbao,-2633241,PPL,populated place,GNS
24.77,121.2525,hamlet,而完窩,Erwanwo,6405042,PPL,populated place,GNS
24.762222,121.244167,hamlet,六曲窩,Liuquwo,6405045,PPL,populated place,GNS
24.766944,121.242778,hamlet,糖寮,Tangliao,6405043,PPL,populated place,GNS
24.768611,121.235556,hamlet,蔗部,Zhebu,6405048,PPL,populated place,GNS
24.759444,121.230556,hamlet,六畜,Liuchu,-2633453,PPL,populated place,GNS
24.762778,121.228611,hamlet,樹橋窩,Shuqiaowo,6405047,PPL,populated place,GNS
24.771389,121.229444,hamlet,錦山,Jinshan,-2628195,PPL,populated place,GNS
24.761389,121.200833,hamlet,瑞福,Ruifu,-2632106,PPL,populated place,GNS
24.778333,121.205278,hamlet,湳湖,Nanhu,-2634457,PPL,populated place,GNS
24.772778,121.203611,hamlet,十股,Shigu,-2636817,PPL,populated place,GNS
24.766667,121.2,hamlet,,Chikeshan,-2627809,PPL,populated place,GNS
24.774444,121.197222,hamlet,柑樹下,Ganshuxia,-2632311,PPL,populated place,GNS
24.701257,120.942453,hamlet,上坪,Shangping,10019460,PPL,populated place,GNS
24.705411,120.958395,hamlet,風爐缺,Fengluque,10019461,PPL,populated place,GNS
24.707917,120.933001,hamlet,下坪,Xiaping,10019459,PPL,populated place,GNS
24.720265,120.955678,hamlet,義門坑,Yimenkeng,10019778,PPL,populated place,GNS
24.721608,120.965382,hamlet,南坑,Nankeng,10019452,PPL,populated place,GNS
24.722015,120.941189,hamlet,深井,Shenjing,-2636653,PPL,populated place,GNS
24.669722,121.013333,hamlet,樹子屋,Shuziwu,6438163,PPL,populated place,GNS
24.669485,120.990851,hamlet,十二寮,Shi'erliao,-2636771,PPL,populated place,GNS
24.678094,120.990466,hamlet,十五寮,Shiwuliao,-2637083,PPL,populated place,GNS
24.679833,120.995115,hamlet,十四寮,Shisiliao,-2636979,PPL,populated place,GNS
24.683889,121.019444,hamlet,圓墩,Yuandun,6438162,PPL,populated place,GNS
24.684722,121.014444,hamlet,糞箕窩,Fenjiwo,6438161,PPL,populated place,GNS
24.890278,120.977778,hamlet,楊厝,Yangcuo,6431404,PPL,populated place,GNS
24.890278,120.974444,hamlet,坑子口,Kengzikou,-2632469,PPL,populated place,GNS
24.895556,120.969722,hamlet,田厝,Tiancuo,-2638873,PPL,populated place,GNS
24.884722,120.956389,hamlet,下鳳鼻尾,Xiafengbiwei,-2630341,PPL,populated place,GNS
24.929722,120.9825,hamlet,上外湖,Shangwaihu,6431362,PPL,populated place,GNS
24.931111,120.985556,hamlet,樹林仔,Shulinzi,6431361,PPL,populated place,GNS
24.933056,120.9975,hamlet,後湖,Houhu,-2630123,PPL,populated place,GNS
24.933056,120.989722,hamlet,田寮,Tianliao,6431360,PPL,populated place,GNS
24.898056,120.987778,hamlet,重興,Chongxing,6431370,PPL,populated place,GNS
24.902778,120.987222,hamlet,新莊子,Xinzhuangzi,6431365,PPLX,populated place,GNS
24.748611,121.011944,hamlet,洽水,Xiashui,6405202,PPL,populated place,GNS
24.761389,121.0025,hamlet,北風坪,Beifengping,6431445,PPL,populated place,GNS
24.764444,120.990556,hamlet,寶山,Baoshan,6431443,PPL,populated place,GNS
24.765278,120.997222,hamlet,葫蘆肚,Huludu,6431439,PPL,populated place,GNS
24.765833,120.990556,hamlet,雙溪,Shuangxi,-2637141,PPL,populated place,GNS
24.808056,121.040833,hamlet,東海窟,Donghaiku,-2639588,PPL,populated place,GNS
24.810556,121.038333,hamlet,麻園,Mayuan,-2634145,PPL,populated place,GNS
24.815278,121.035278,hamlet,十興,Shixing,-2636789,PPL,populated place,GNS
24.806667,121.0325,hamlet,番子寮,Fanziliao,-2629439,PPL,populated place,GNS
24.821667,121.031389,hamlet,鹿場,Luchang,-2633612,PPL,populated place,GNS
24.757222,121.191111,hamlet,石門,Shimen,-2631106,PPL,populated place,GNS
24.77,121.193611,hamlet,高坪,Gaoping,-2632405,PPL,populated place,GNS
24.755,121.186111,hamlet,新富,Xinfu,-2631105,PPL,populated place,GNS
24.758889,121.185278,hamlet,伯公下,Bogongxia,-2635826,PPL,populated place,GNS
24.770278,121.188056,hamlet,彭屋,Pengwu,6404899,PPL,populated place,GNS
24.775556,121.186111,hamlet,深瀝,Shenli,-2636696,PPL,populated place,GNS
24.770556,121.184167,hamlet,暗潭,Antan,-2626930,PPL,populated place,GNS
24.767222,121.178889,hamlet,莊尾,Zhuangwei,-2628520,PPL,populated place,GNS
24.769722,121.1775,hamlet,老社寮,Laosheliao,6405268,PPL,populated place,GNS
24.782222,121.178889,hamlet,十六張,Shiliuzhang,-2636854,PPL,populated place,GNS
24.7625,121.173056,hamlet,新城,Xincheng,-2630994,PPL,populated place,GNS
24.758889,121.170278,hamlet,太平橋,Taipingqiao,6405408,PPL,populated place,GNS
24.754722,121.218333,hamlet,白石下,Baishixia,6405068,PPL,populated place,GNS
24.758889,121.208056,hamlet,玉山,Yushan,6405067,PPL,populated place,GNS
24.691111,121.017778,hamlet,西峨眉,Xi'emei,6438159,PPL,populated place,GNS
24.693333,121.022778,hamlet,後背山,Houbeishan,6438160,PPL,populated place,GNS
24.694917,121.002638,hamlet,赤柯坪,Chikeping,-2627844,PPL,populated place,GNS
24.696389,121.009167,hamlet,葫蘆肚,Huludu,6438158,PPL,populated place,GNS
24.69719,121.002914,hamlet,石井,Shijing,10019552,PPL,populated place,GNS
24.701667,121.009444,hamlet,沙坑,Shakeng,6438382,PPL,populated place,GNS
24.703333,121.018056,hamlet,梯子坑,Tizikeng,6438157,PPL,populated place,GNS
24.705833,121.025833,hamlet,四面崠,Simiandong,6438379,PPL,populated place,GNS
24.711389,121.029444,hamlet,四分林,Sifenlin,6438156,PPL,populated place,GNS
24.645,121.021389,hamlet,六寮,Liuliao,-2633494,PPL,populated place,GNS
24.650833,121.011944,hamlet,十寮,Shiliao,6438167,PPL,populated place,GNS
24.680278,121.031944,hamlet,陰影,Yinying,6438175,PPL,populated place,GNS
24.682778,121.028056,hamlet,下河背,Xiahebei,-2630033,PPL,populated place,GNS
24.685556,121.032778,hamlet,上河背,Shanghebei,6438176,PPL,populated place,GNS
24.691389,121.035,hamlet,龜山下,Guishanxia,6438353,PPL,populated place,GNS
24.692222,121.031111,hamlet,中興,Zhongxing,6438383,PPL,populated place,GNS
24.704444,121.037778,hamlet,暗窩,Anwo,6438179,PPL,populated place,GNS
24.651389,121.07,hamlet,內大坪,Neidaping,-2634810,PPL,populated place,GNS
24.915556,120.991944,hamlet,崁頭,Kantou,-2632335,PPL,populated place,GNS
24.925,120.997778,hamlet,後湖仔,Houhuzi,-2630130,PPL,populated place,GNS
24.872778,120.959167,hamlet,山腳,Shanjiao,-2636348,PPL,populated place,GNS
24.873611,120.955556,hamlet,庄尾,Zhuangwei,6431401,PPL,populated place,GNS
24.881389,120.998056,hamlet,傅厝,Fucuo,6431383,PPL,populated place,GNS
24.885833,120.996389,hamlet,員山,Yuanshan,-2640818,PPL,populated place,GNS
24.883889,120.991111,hamlet,崎頂,Qiding,-2628252,PPL,populated place,GNS
24.888333,120.988611,hamlet,象鼻,Xiangbi,-2630488,PPL,populated place,GNS
24.8725,120.995833,hamlet,山崎,Shanqi,-2636335,PPL,populated place,GNS
24.864444,120.985833,hamlet,坪頂厝,Pingdingcuo,-2635728,PPL,populated place,GNS
24.874444,120.987222,hamlet,松柏林,Songbailin,-2637530,PPL,populated place,GNS
24.866667,120.983333,hamlet,,Wanggaolou,-2640028,PPL,populated place,GNS
24.811944,121.026944,hamlet,芒頭埔,Mangtoubu,6405361,PPL,populated place,GNS
24.823889,121.034167,hamlet,安溪寮,Anxiliao,-2626904,PPL,populated place,GNS
24.825,121.055556,hamlet,水車頭,Shuichetou,6405206,PPL,populated place,GNS
24.828333,121.04,hamlet,犁頭山,Litoushan,-2633417,PPL,populated place,GNS
24.829444,121.033056,hamlet,犂頭山下,Litoushanxia,-2633404,PPL,populated place,GNS
24.835556,121.054722,hamlet,上枋寮,Shangfangliao,-2629335,PPL,populated place,GNS
24.841667,121.041389,hamlet,下枋寮,Xiafangliao,6405159,PPL,populated place,GNS
24.849722,121.046389,hamlet,燒炭窩,Shaotanwo,-2636597,PPL,populated place,GNS
24.769722,121.036389,hamlet,柯子後湖,Kezihouhu,6405412,PPL,populated place,GNS
24.771667,121.022778,hamlet,金山面,Jinshanmian,-2628194,PPL,populated place,GNS
24.773611,121.016667,hamlet,平頂埔,Pingdingbu,6405223,PPL,populated place,GNS
24.767222,121.223056,hamlet,金山,Jinshan,6405373,PPL,populated place,GNS
24.771389,121.225,hamlet,馬武督,Mawudu,-2634138,PPL,populated place,GNS
24.772222,121.211667,hamlet,牛鬥口,Niudoukou,6405066,PPL,populated place,GNS
24.775556,121.211944,hamlet,三十八份,Sanshibafen,6405050,PPL,populated place,GNS
24.779444,121.229722,hamlet,阿化窩,Ahuawo,6405049,PPL,populated place,GNS
24.788611,121.212222,hamlet,四寮,Siliao,-2637440,PPL,populated place,GNS
24.791389,121.218333,hamlet,七寮,Qiliao,-2627928,PPL,populated place,GNS
24.793889,121.221667,hamlet,八寮,Baliao,-2635152,PPL,populated place,GNS
24.795833,121.228889,hamlet,十寮,Shiliao,-2636845,PPL,populated place,GNS
24.764167,121.098611,hamlet,倒別牛,Daobieniu,-2638298,PPL,populated place,GNS
24.773056,121.1725,hamlet,苧子園,Zhuziyuan,-2629163,PPL,populated place,GNS
24.751111,121.163056,hamlet,大平地,Dapingdi,-2638386,PPL,populated place,GNS
24.650833,121.056667,hamlet,千段崎,Qianduanqi,6438199,PPL,populated place,GNS
24.673611,121.059722,hamlet,南坑口,Nankengkou,-2634511,PPL,populated place,GNS
24.675556,121.06,hamlet,大坪,Daping,-2639964,PPL,populated place,GNS
24.667222,121.049167,hamlet,小南坑,Xiaonankeng,-2630600,PPL,populated place,GNS
24.653333,121.044167,hamlet,大南坑,Danankeng,-2638168,PPL,populated place,GNS
24.675278,121.0425,hamlet,番婆坑,Fanpokeng,-2640107,PPL,populated place,GNS
24.662222,121.038056,hamlet,香蕉窩,Xiangjiaowo,6438173,PPL,populated place,GNS
24.665278,121.038889,hamlet,石硬子,Shiyingzi,6438384,PPL,populated place,GNS
24.658889,121.025,hamlet,石硬子,Shiyingzi,6438166,PPL,populated place,GNS
24.660833,121.02,hamlet,茅坪,Maoping,6438164,PPL,populated place,GNS
24.676944,121.019167,hamlet,社寮坑,Sheliaokeng,-2636636,PPL,populated place,GNS
24.658056,121.010833,hamlet,八寮,Baliao,6438165,PPL,populated place,GNS
24.860833,120.973889,hamlet,田九厝,Tianjiucuo,-2638751,PPL,populated place,GNS
24.866111,120.967222,hamlet,東勢,Dongshi,-2639767,PPL,populated place,GNS
24.8725,120.963056,hamlet,貓兒碇,Mao'erding,-2634042,PPL,populated place,GNS
24.909167,121.0225,hamlet,瑞興,Ruixing,6404860,PPL,populated place,GNS
24.908889,121.017778,hamlet,沈屋,Shenwu,6404861,PPL,populated place,GNS
24.907222,121.016111,hamlet,徐厝,Xucuo,6404862,PPL,populated place,GNS
24.909444,121.014444,hamlet,崁頭,Kantou,-2632334,PPL,populated place,GNS
24.904722,121.0125,hamlet,黃厝,Huangcuo,6404863,PPL,populated place,GNS
24.903611,121.003889,hamlet,中崙,Zhonglun,-2628912,PPL,populated place,GNS
24.898333,121.000556,hamlet,中崙店,Zhonglundian,6431357,PPL,populated place,GNS
24.922222,121.005,hamlet,青埔子,Qingbuzi,-2628043,PPL,populated place,GNS
24.931111,121.028611,hamlet,十一股,Shiyigu,-2636800,PPL,populated place,GNS
24.931944,121.02,hamlet,余厝,Yucuo,6405359,PPL,populated place,GNS
24.938056,121.012222,hamlet,張厝,Zhangcuo,6402241,PPL,populated place,GNS
24.939167,121.001667,hamlet,深坑,Shenkeng,6431359,PPL,populated place,GNS
24.777778,121.033889,hamlet,石碑,Shipi,-2636923,PPL,populated place,GNS
24.784722,121.016389,hamlet,關東橋,Guandongqiao,-2632692,PPL,populated place,GNS
24.787778,121.0175,hamlet,新莊,Xinzhuang,6405219,PPL,populated place,GNS
24.788333,121.048333,hamlet,麻園肚,Mayuandu,-2634151,PPL,populated place,GNS
24.790833,121.031389,hamlet,麻園肚,Mayuandu,6405380,PPL,populated place,GNS
24.7925,121.025,hamlet,下員山,Xiayuanshan,-2640825,PPL,populated place,GNS
24.795,121.020556,hamlet,柴梳山,Chaishushan,-2626993,PPL,populated place,GNS
24.801389,121.039444,hamlet,隘口,Aikou,-2626824,PPL,populated place,GNS
24.803611,121.050556,hamlet,東興,Dongxing,6405212,PPL,populated place,GNS
24.751111,121.047778,hamlet,湖壢,Huli,-2630377,PPL,populated place,GNS
24.746667,121.04,hamlet,溫沙壢,Wenshali,6438188,PPL,populated place,GNS
24.743611,121.158611,hamlet,風爐口,Fenglukou,6438237,PPL,populated place,GNS
24.755,121.16,hamlet,十六份,Shiliufen,6404842,PPL,populated place,GNS
24.746389,121.151667,hamlet,馬鞍凹,Ma'anwa,6438388,PPL,populated place,GNS
24.776667,121.156667,hamlet,燥坑,Zaokeng,-2639326,PPL,populated place,GNS
24.744167,121.145,hamlet,灶桶窩,Zaotongwo,6438234,PPL,populated place,GNS
24.753611,121.146944,hamlet,老茶亭,Laochating,6405245,PPL,populated place,GNS
24.756389,121.143611,hamlet,雞寮坑,Jiliaokeng,6405244,PPL,populated place,GNS
24.753056,121.141111,hamlet,鹿寮坑,Luliaokeng,-2633671,PPL,populated place,GNS
24.773611,121.140278,hamlet,坑尾,Kengwei,6405232,PPL,populated place,GNS
24.744722,121.132222,hamlet,茄苳窩,Qiedongwo,6438232,PPL,populated place,GNS
24.758889,121.132222,hamlet,直窩,Zhiwo,6405148,PPL,populated place,GNS
24.763056,121.13,hamlet,芎蕉窩,Xiongjiaowo,-2631593,PPL,populated place,GNS
24.755833,121.121944,hamlet,王爺坑,Wangyekeng,6405236,PPL,populated place,GNS
24.761111,121.122778,hamlet,牛欄窩,Niulanwo,-2634915,PPL,populated place,GNS
24.719722,121.115833,hamlet,橫山,Hengshan,-2629986,PPL,populated place,GNS
24.721111,121.108056,hamlet,新莊子,Xinzhuangzi,-2631079,PPL,populated place,GNS
24.634722,121.053611,hamlet,四十二分,Sishi'erfen,-2637463,PPL,populated place,GNS
24.638889,121.0325,hamlet,藤坪,Tengping,-2638709,PPL,populated place,GNS
24.641389,121.063889,hamlet,焿寮坪,Ganliaoping,-2632451,PPL,populated place,GNS
24.643333,121.066667,hamlet,長坪,Changping,6438385,PPL,populated place,GNS
24.645556,121.039722,hamlet,界石龍,Jieshilong,6438355,PPL,populated place,GNS
24.646389,121.043889,hamlet,高旗崠,Gaoqidong,6438354,PPL,populated place,GNS
24.698333,121.085833,hamlet,大湖,Dahu,-2637789,PPL,populated place,GNS
24.698333,121.075278,hamlet,尾隘子,Wei'aizi,-2640188,PPL,populated place,GNS
24.690833,121.071111,hamlet,下大湖,Xiadahu,-2630727,PPL,populated place,GNS
24.691389,121.069167,hamlet,水磜瀝,Shuiqili,6438197,PPL,populated place,GNS
24.681389,121.063333,hamlet,二寮,Erliao,-2629266,PPL,populated place,GNS
24.71,121.070833,hamlet,庄口,Zhuangkou,6438371,PPL,populated place,GNS
24.703889,121.067222,hamlet,間子下,Jianzixia,6438182,PPL,populated place,GNS
24.708611,121.067778,hamlet,麻布樹排,Mabushupai,-2637292,PPL,populated place,GNS
24.903333,121.045556,hamlet,湖口,Hukou,-2631784,PPL,populated place,GNS
24.906111,121.030833,hamlet,德盛,Desheng,-2638712,PPL,populated place,GNS
24.908333,121.049444,hamlet,愛勢村,Aishicun,6404859,PPL,populated place,GNS
24.916111,121.045278,hamlet,雙蓮坡,Shuanglianpo,6404857,PPL,populated place,GNS
24.918611,121.035,hamlet,和興,Hexing,-2630010,PPL,populated place,GNS
24.872222,121.041389,hamlet,番子湖,Fanzihu,6404955,PPL,populated place,GNS
24.88,121.043056,hamlet,崩坡缺,Bengpoque,6404954,PPL,populated place,GNS
24.885278,121.037222,hamlet,波羅村,Boluocun,-2635581,PPL,populated place,GNS
24.875833,121.034444,hamlet,中番子湖,Zhongfanzihu,-2636389,PPL,populated place,GNS
24.891389,121.038611,hamlet,下北勢,Xiabeishi,-2630657,PPL,populated place,GNS
24.885278,121.030556,hamlet,王爺壟,Wangyelong,-2640070,PPL,populated place,GNS
24.753889,121.038889,hamlet,柯仔湖,Kezihu,-2636299,PPL,populated place,GNS
24.742222,121.020833,hamlet,枋子坑,Fangzikeng,6438151,PPL,populated place,GNS
24.763333,121.026389,hamlet,風空,Fengkong,-2629532,PPL,populated place,GNS
24.750556,121.022222,hamlet,水仙崙,Shuixianlun,-2637209,PPL,populated place,GNS
24.749167,121.018333,hamlet,洽水崎,Xiashuiqi,-2633177,PPL,populated place,GNS
24.761667,121.019167,hamlet,鹿仔坑,Luzikeng,6405224,PPL,populated place,GNS
24.683333,121,hamlet,,Shizicun,-2637068,PPL,populated place,GNS
24.689167,121.02,hamlet,峨眉,Emei,-2634979,PPL,populated place,GNS
24.7,121,hamlet,,Liuzitao,-2633536,PPL,populated place,GNS
24.712778,121.015278,hamlet,下大壢,Xiadali,-2640378,PPL,populated place,GNS
24.715278,121.025556,hamlet,中大壢,Zhongdali,-2630866,PPL,populated place,GNS
24.718823,121.006835,hamlet,五化,Wuhua,10019605,PPL,populated place,GNS
24.721055,121.010442,hamlet,雞油凸,Jiyoutu,-2628436,PPL,populated place,GNS
24.721944,121.042222,hamlet,上大壢,Shangdali,-2630865,PPL,populated place,GNS
24.7225,121.025278,hamlet,八股,Bagu,6438154,PPL,populated place,GNS
24.724722,121.011389,hamlet,八股口,Bagukou,6438155,PPL,populated place,GNS
24.733611,121.1175,hamlet,秀湖,Xiuhu,-2631572,PPL,populated place,GNS
24.733889,121.126944,hamlet,石吼子,Shihouzi,6438230,PPL,populated place,GNS
24.736111,121.121667,hamlet,五龍,Wulong,-2640461,PPL,populated place,GNS
24.736389,121.128333,hamlet,宋屋窩,Songwuwo,6438231,PPL,populated place,GNS
24.738333,121.128333,hamlet,芎林庄,Xionglinzhuang,-2631597,PPL,populated place,GNS
24.741111,121.116944,hamlet,燒炭窩,Shaotanwo,-2636598,PPL,populated place,GNS
24.7425,121.1225,hamlet,下窩,Xiawo,-2630769,PPL,populated place,GNS
24.742778,121.125278,hamlet,桔子窩,Juziwo,6438375,PPL,populated place,GNS
24.717222,121.147778,hamlet,上大窩,Shangdawo,-2636467,PPL,populated place,GNS
24.7175,121.154444,hamlet,十分寮,Shifenliao,-2630009,PPL,populated place,GNS
24.718333,121.151389,hamlet,新興,Xinxing,-2631174,PPL,populated place,GNS
24.725,121.150833,hamlet,牛角窩,Niujiaowo,6438373,PPL,populated place,GNS
24.725556,121.134444,hamlet,大肚,Dadu,-2631175,PPL,populated place,GNS
24.726389,121.143611,hamlet,下大窩,Xiadawo,-2630735,PPL,populated place,GNS
24.728611,121.134444,hamlet,香園窩,Xiangyuanwo,-2630475,PPL,populated place,GNS
24.696667,121.064444,hamlet,煙寮坪,Yanliaoping,6438386,PPL,populated place,GNS
24.71,121.066389,hamlet,黑橋窩,Heiqiaowo,6438181,PPL,populated place,GNS
24.704722,121.058333,hamlet,溝背,Goubei,6438180,PPL,populated place,GNS
24.581667,121.113056,hamlet,面都由社,Mianduyoushe,-2634257,PPL,populated place,GNS
24.578889,121.108056,hamlet,民都有,Minduyou,6438323,PPL,populated place,GNS
24.580556,121.105833,hamlet,三叉路,Sanchalu,6438322,PPL,populated place,GNS
24.572778,121.103056,hamlet,清泉,Qingquan,-2627999,PPL,populated place,GNS
24.596111,121.109167,hamlet,桃山,Taoshan,-2638301,PPL,populated place,GNS
24.891667,121.02,hamlet,波羅汶,Boluowen,-2635834,PPL,populated place,GNS
24.885,121.009444,hamlet,番子湖,Fanzihu,-2629423,PPL,populated place,GNS
24.928889,121.038056,hamlet,圓山子,Yuanshanzi,-2630013,PPL,populated place,GNS
24.895833,121.082222,hamlet,嶺尾,Lingwei,-2633311,PPL,populated place,GNS
24.898889,121.066111,hamlet,嶺尾,Lingwei,6404943,PPL,populated place,GNS
24.898056,121.059444,hamlet,上北勢,Shangbeishi,-2636437,PPL,populated place,GNS
24.901944,121.058889,hamlet,吳厝,Wucuo,6404865,PPL,populated place,GNS
24.897222,121.054444,hamlet,中北勢,Zhongbeishi,-2628924,PPL,populated place,GNS
24.866389,121.060278,hamlet,箕南窩,Jinanwo,-2627974,PPL,populated place,GNS
24.866944,121.097778,hamlet,大平窩尾,Dapingwowei,6405156,PPL,populated place,GNS
24.871667,121.054444,hamlet,糞箕窩,Fenjiwo,-2629497,PPL,populated place,GNS
24.871944,121.066111,hamlet,糞箕湖,Fenjihu,6404978,PPL,populated place,GNS
24.875,121.097778,hamlet,羊喜窩尾,Yangxiwowei,6405401,PPL,populated place,GNS
24.879722,121.104167,hamlet,南窩,Nanwo,-2634680,PPL,populated place,GNS
24.727778,121.032778,hamlet,芎蕉窩,Xiongjiaowo,6438186,PPL,populated place,GNS
24.731667,121.030278,hamlet,寶山,Baoshan,-2635257,PPL,populated place,GNS
24.731667,121.0425,hamlet,北坑,Beikeng,6438396,PPL,populated place,GNS
24.731944,121.009444,hamlet,南坑,Nankeng,6438153,PPL,populated place,GNS
24.733056,121.017222,hamlet,泥船,Nichuan,6438152,PPL,populated place,GNS
24.733333,121.033333,hamlet,,Baoshanzhuang,-2635258,PPL,populated place,GNS
24.733333,121.033333,hamlet,,Beitouzi,-2635526,PPL,populated place,GNS
24.737778,121.028056,hamlet,寶岡,Baogang,6438397,PPL,populated place,GNS
24.775833,121.053056,hamlet,青窩坡,Qingwopo,6405227,PPL,populated place,GNS
24.7775,121.047222,hamlet,頭重埔,Touchongbu,-2639199,PPL,populated place,GNS
24.779722,121.055,hamlet,上員山,Shangyuanshan,6405226,PPL,populated place,GNS
24.782222,121.066111,hamlet,崁下,Kanxia,6405389,PPL,populated place,GNS
24.791111,121.063611,hamlet,五座屋,Wuzuowu,6405168,PPL,populated place,GNS
24.796111,121.056389,hamlet,三崁店,Sankandian,-2636147,PPL,populated place,GNS
24.799444,121.068333,hamlet,下山,Xiashan,-2630696,PPL,populated place,GNS
24.804722,121.081667,hamlet,石埤,Shipi,6405216,PPL,populated place,GNS
24.729167,121.156944,hamlet,北十分寮,Beishifenliao,-2636779,PPL,populated place,GNS
24.730556,121.151667,hamlet,二確,Erque,6438238,PPL,populated place,GNS
24.7325,121.139167,hamlet,彭厝窩,Pengcuowo,-2635568,PPL,populated place,GNS
24.733333,121.15,hamlet,,Nanshakengqiao,-2634562,PPL,populated place,GNS
24.734167,121.135556,hamlet,安屋窩,Anwuwo,6438236,PPL,populated place,GNS
24.738333,121.161667,hamlet,沙坑,Shakeng,-2636305,PPL,populated place,GNS
24.738333,121.139167,hamlet,吳屋窩,Wuwuwo,6438235,PPL,populated place,GNS
24.740556,121.150556,hamlet,六蛇坑,Liushekeng,-2633501,PPL,populated place,GNS
24.741667,121.138889,hamlet,担子窩,Danziwo,-2638251,PPL,populated place,GNS
24.743056,121.107222,hamlet,十股林,Shigulin,-2636829,PPL,populated place,GNS
24.7175,121.097222,hamlet,資源莊,Ziyuanzhuang,6438372,PPLX,populated place,GNS
24.715278,121.163056,hamlet,南河,Nanhe,-2634431,PPL,populated place,GNS
24.718056,121.169167,hamlet,矮筧子,Aijianzi,6438266,PPL,populated place,GNS
24.721944,121.174167,hamlet,白石湖,Baishihu,-2635107,PPL,populated place,GNS
24.7275,121.176667,hamlet,白石壢,Baishili,-2635109,PPL,populated place,GNS
24.729722,121.169444,hamlet,石崠,Shidong,6438268,PPL,populated place,GNS
24.730833,121.183333,hamlet,馬學社,Maxueshe,-2633952,PPL,populated place,GNS
24.731389,121.162778,hamlet,下四瓊,Xiasiqiong,6438391,PPL,populated place,GNS
24.731667,121.179722,hamlet,東安部莊,Dong'anbuzhuang,6438267,PPL,populated place,GNS
24.566111,121.094167,hamlet,土場,Tuchang,-2639463,PPL,populated place,GNS
24.580833,121.091944,hamlet,白蘭,Bailan,-2635047,PPL,populated place,GNS
24.589167,121.2575,hamlet,養老,Yanglao,-2640620,PPL,populated place,GNS
24.573056,121.247222,hamlet,栗園,Liyuan,-2633548,PPL,populated place,GNS
24.5675,121.2375,hamlet,馬鞍,Ma'an,6438292,PPL,populated place,GNS
24.552778,121.219722,hamlet,白石,Baishi,6438295,PPL,populated place,GNS
24.556111,121.210833,hamlet,朝日,Zhaori,-2627137,PPL,populated place,GNS
24.554444,121.189444,hamlet,根本,Genben,-2632488,PPL,populated place,GNS
24.561389,121.178333,hamlet,高橋,Gaoqiao,6438288,PPL,populated place,GNS
24.559167,121.143333,hamlet,石鹿,Shilu,-2636863,PPL,populated place,GNS
24.557222,121.133889,hamlet,松本,Songben,-2637534,PPL,populated place,GNS
24.883333,121.105,hamlet,北窩,Beiwo,-2635544,PPL,populated place,GNS
24.888333,121.085278,hamlet,長安,Chang'an,-2627015,PPL,populated place,GNS
24.879444,121.076944,hamlet,羊喜窩,Yangxiwo,-2640645,PPL,populated place,GNS
24.891389,121.078333,hamlet,長崗嶺,Changgangling,-2627050,PPL,populated place,GNS
24.886111,121.0725,hamlet,四角亭,Sijiaoting,-2637384,PPL,populated place,GNS
24.893611,121.068056,hamlet,西湖尾,Xihuwei,-2637421,PPL,populated place,GNS
24.8875,121.058889,hamlet,埔心,Buxin,-2635892,PPL,populated place,GNS
24.8775,121.054167,hamlet,老湖口,Laohukou,-2633128,PPL,populated place,GNS
24.835556,121.130833,hamlet,小北坑,Xiaobeikeng,-2630607,PPL,populated place,GNS
24.846944,121.135,hamlet,鹿鳴橋,Lumingqiao,6404961,PPL,populated place,GNS
24.851667,121.140278,hamlet,鹿鳴坑,Lumingkeng,-2633690,PPL,populated place,GNS
24.805,121.055556,hamlet,東海,Donghai,6405213,PPL,populated place,GNS
24.809167,121.059167,hamlet,水坑口,Shuikengkou,-2637215,PPL,populated place,GNS
24.810278,121.060833,hamlet,水坑子,Shuikengzi,6405214,PPL,populated place,GNS
24.814722,121.083889,hamlet,下內立,Xianeili,6405208,PPL,populated place,GNS
24.815833,121.078333,hamlet,三段崎,Sanduanqi,6405215,PPL,populated place,GNS
24.816667,121.085,hamlet,寶石,Baoshi,-2635265,PPL,populated place,GNS
24.822222,121.078333,hamlet,田新,Tianxin,-2638775,PPL,populated place,GNS
24.825,121.061111,hamlet,土地公埔,Tudigongbu,-2639869,PPL,populated place,GNS
24.827222,121.083333,hamlet,四座屋,Sizuowu,-2637473,PPL,populated place,GNS
24.828056,121.076111,hamlet,新埔,Xinbu,-2631309,PPL,populated place,GNS
24.835,121.076111,hamlet,下樟樹林,Xiazhangshulin,-2627085,PPL,populated place,GNS
24.836111,121.066389,hamlet,旱坑子,Hankengzi,6405158,PPL,populated place,GNS
24.735,121.169167,hamlet,八十分,Bashifen,-2635296,PPL,populated place,GNS
24.735,121.183611,hamlet,馬福,Mafu,-2633951,PPL,populated place,GNS
24.741389,121.176389,hamlet,牛角窩,Niujiaowo,6438269,PPL,populated place,GNS
24.751111,121.180278,hamlet,中城,Zhongcheng,-2628693,PPL,populated place,GNS
24.754167,121.173333,hamlet,蛙子窟,Waziku,-2639989,PPL,populated place,GNS
24.731944,121.250833,hamlet,新樂,Xinle,-2637272,PPL,populated place,GNS
24.733333,121.233333,hamlet,,Hualiansi,-2631696,PPL,populated place,GNS
24.754444,121.238611,hamlet,大庭頂,Datingding,6405046,PPL,populated place,GNS
24.728056,121.23,hamlet,嘉樂,Jiale,-2627359,PPL,populated place,GNS
24.717222,121.219167,hamlet,麥樹仁,Maishuren,-2633968,PPL,populated place,GNS
24.571111,121.304167,hamlet,鎮西堡,Zhenxibao,-2627252,PPL,populated place,GNS
24.580556,121.302222,hamlet,新光,Xinguang,-2631242,PPL,populated place,GNS
24.592778,121.265278,hamlet,延老,Yanlao,6341003,PPL,populated place,GNS
24.578889,121.335,hamlet,斯馬庫斯,Simakusi,-2637450,PPL,populated place,GNS
24.527222,121.094722,hamlet,腦寮,Naoliao,-2634697,PPL,populated place,GNS
24.556389,121.116389,hamlet,民生,Minsheng,-2638877,PPL,populated place,GNS
24.8675,121.103611,hamlet,南園,Nanyuan,6405155,PPL,populated place,GNS
24.875556,121.105,hamlet,南窩尾,Nanwowei,6405402,PPL,populated place,GNS
24.835278,121.166389,hamlet,南坑,Nankeng,-2634512,PPL,populated place,GNS
24.841944,121.146389,hamlet,埤頭窩,Pitouwo,6405152,PPL,populated place,GNS
24.844444,121.1525,hamlet,三洽水,Sanxiashui,-2636113,PPL,populated place,GNS
24.845278,121.165,hamlet,下伯公,Xiabogong,-2630670,PPL,populated place,GNS
24.847778,121.142778,hamlet,照東,Zhaodong,6405381,PPL,populated place,GNS
24.847778,121.160833,hamlet,蟻子埔,Yizibu,-2632029,PPL,populated place,GNS
24.848889,121.163889,hamlet,山水村,Shanshuicun,6405151,PPL,populated place,GNS
24.852778,121.148056,hamlet,北打鐵坑,Beidatiekeng,-2631293,PPL,populated place,GNS
24.711967,120.924534,hamlet,頂埔,Dingbu,-2639076,PPL,populated place,GNS
24.72224,120.918397,hamlet,山頂,Shanding,10019786,PPL,populated place,GNS
24.844722,121.067778,hamlet,大平窩,Dapingwo,-2637909,PPL,populated place,GNS
24.837222,121.088333,hamlet,上樟樹林,Shangzhangshulin,6405061,PPL,populated place,GNS
24.8375,121.096111,hamlet,四座尾,Sizuowei,-2637474,PPL,populated place,GNS
24.838333,121.103889,hamlet,小茅埔,Xiaomaobu,-2630592,PPL,populated place,GNS
24.844167,121.103056,hamlet,大坪,Daping,-2638375,PPL,populated place,GNS
24.844444,121.085833,hamlet,旱坑子,Hankengzi,6405403,PPL,populated place,GNS
24.85,121.102222,hamlet,箭竹窩,Jianzhuwo,-2627645,PPL,populated place,GNS
24.854167,121.108889,hamlet,九芎湖,Jiuxionghu,-2628319,PPL,populated place,GNS
24.864167,121.1075,hamlet,照鏡尾,Zhaojingwei,6405154,PPL,populated place,GNS
24.769444,121.086667,hamlet,五股林,Wugulin,-2640413,PPL,populated place,GNS
24.773611,121.069444,hamlet,荳子埔,Douzibu,-2639252,PPL,populated place,GNS
24.774167,121.085,hamlet,高梘頭,Gaojiantou,-2632371,PPL,populated place,GNS
24.775278,121.079167,hamlet,芎林,Xionglin,-2631595,PPL,populated place,GNS
24.714444,121.210833,hamlet,仙河,Xianhe,-2628652,PPL,populated place,GNS
24.7375,121.210556,hamlet,鉛山,Qianshan,-2627724,PPL,populated place,GNS
24.748056,121.208056,hamlet,二重坑,Erchongkeng,-2629244,PPL,populated place,GNS
24.713889,121.1875,hamlet,東窩,Dongwo,6438264,PPL,populated place,GNS
24.687222,121.179722,hamlet,新興,Xinxing,-2631162,PPL,populated place,GNS
24.701944,121.180278,hamlet,南坪,Nanping,-2634549,PPL,populated place,GNS
24.705833,121.181111,hamlet,內灣,Neiwan,-2634824,PPL,populated place,GNS
24.7025,121.173889,hamlet,南窩,Nanwo,-2634679,PPL,populated place,GNS
24.709722,121.174444,hamlet,九芎坪,Jiuxiongping,-2628333,PPL,populated place,GNS
24.565556,121.107222,hamlet,三野,Sanye,6438325,PPL,populated place,GNS
24.514722,121.195833,hamlet,檜山,Kuaishan,6438291,PPL,populated place,GNS
24.755556,120.943333,hamlet,廖厝,Liaocuo,6431425,PPL,populated place,GNS
24.76,120.942222,hamlet,櫻花庄,Yinghuazhuang,6431421,PPL,populated place,GNS
24.750833,120.937778,hamlet,馬厝,Macuo,6431427,PPL,populated place,GNS
24.755556,120.938889,hamlet,草湳仔,Caonanzi,6431422,PPL,populated place,GNS
24.754444,120.938333,hamlet,米粉寮,Mifenliao,6431424,PPL,populated place,GNS
24.756667,120.930278,hamlet,觀井林,Guanjinglin,6431329,PPL,populated place,GNS
24.760278,120.930556,hamlet,水柳林,Shuiliulin,6431419,PPL,populated place,GNS
24.75,120.925,hamlet,大湖莊,Dahuzhuang,-2630915,PPL,populated place,GNS
24.730144,120.936733,hamlet,南隘,Nan'ai,-2634473,PPL,populated place,GNS
24.74529,120.934532,hamlet,菜瓜坑,Caiguakeng,10019449,PPL,populated place,GNS
24.746567,120.931981,hamlet,埤埔,Pibu,10019448,PPL,populated place,GNS
24.725431,120.926071,hamlet,柳仔湳口,Liuzinankou,10019591,PPL,populated place,GNS
24.742778,120.924444,hamlet,五坪西坑,Wupingxikeng,-2640476,PPL,populated place,GNS
24.729017,120.917981,hamlet,中隘,Zhong'ai,-2628818,PPL,populated place,GNS
24.732274,120.917331,hamlet,五分埤,Wufenpi,10019456,PPL,populated place,GNS
24.778056,121.093333,hamlet,華興,Huaxing,6405417,PPL,populated place,GNS
24.779444,121.081389,hamlet,紙寮窩,Zhiliaowo,6405229,PPL,populated place,GNS
24.781667,121.098056,hamlet,油茶園,Youchayuan,6405242,PPL,populated place,GNS
24.785556,121.073333,hamlet,田洋,Tianyang,6404819,PPL,populated place,GNS
24.7875,121.070833,hamlet,下田洋,Xiatianyang,6402252,PPL,populated place,GNS
24.789722,121.075,hamlet,上山,Shangshan,-2636447,PPL,populated place,GNS
24.79,121.083611,hamlet,柑園崗,Ganyuangang,6405218,PPL,populated place,GNS
24.793889,121.075278,hamlet,,Pogengwo,6405246,PPL,populated place,GNS
24.803611,121.081667,hamlet,石頭坑,Shitoukeng,6405217,PPL,populated place,GNS
24.683333,121.05,hamlet,,Jiufenzi,-2628312,PPL,populated place,GNS
24.686944,121.053056,hamlet,大分林,Dafenlin,-2637731,PPL,populated place,GNS
24.691667,121.079444,hamlet,上大湖,Shangdahu,-2636459,PPL,populated place,GNS
24.696389,121.041944,hamlet,南埔,Nanbu,-2634557,PPL,populated place,GNS
24.700278,121.056111,hamlet,北埔,Beibu,-2635449,PPL,populated place,GNS
24.704167,121.048889,hamlet,埔尾,Buwei,-2635968,PPL,populated place,GNS
24.712222,121.053333,hamlet,水磜,Shuiqi,-2637197,PPL,populated place,GNS
24.713333,121.086667,hamlet,柳樹湳,Liushunan,-2633509,PPL,populated place,GNS
24.71,121.1725,hamlet,油羅,Youluo,-2629606,PPL,populated place,GNS
24.7075,121.168889,hamlet,社寮角,Sheliaojiao,6438265,PPL,populated place,GNS
24.7,121.166667,hamlet,,Tuo'ai,-2639149,PPL,populated place,GNS
24.690278,121.156389,hamlet,焿灶壢,Ganzaoli,-2632465,PPL,populated place,GNS
24.705278,121.159167,hamlet,油羅店,Youluodian,6438246,PPL,populated place,GNS
24.69,121.150833,hamlet,大樹龍,Dashulong,-2629509,PPL,populated place,GNS
24.684167,121.146944,hamlet,大寮,Daliao,-2630623,PPL,populated place,GNS
24.686667,121.138333,hamlet,騎龍,Qilong,-2627671,PPL,populated place,GNS
24.695833,121.144444,hamlet,大山背,Dashanbei,6438245,PPL,populated place,GNS
24.695833,121.149444,hamlet,芎蕉湖,Xiongjiaohu,-2631588,PPL,populated place,GNS
24.698333,121.141944,hamlet,草寮,Caoliao,6438243,PPL,populated place,GNS
24.706389,121.138889,hamlet,粗坑,Cukeng,6438247,PPL,populated place,GNS
24.706667,121.127778,hamlet,中隘,Zhong'ai,6438227,PPL,populated place,GNS
24.8425,120.956944,hamlet,新莊子,Xinzhuangzi,-2631080,PPL,populated place,GNS
24.843333,120.947778,hamlet,新庄崙,Xinzhuanglun,6431386,PPL,populated place,GNS
24.845,120.929167,hamlet,南寮,Nanliao,-2634527,PPL,populated place,GNS
24.845278,120.941944,hamlet,舊港,Jiugang,-2628343,PPL,populated place,GNS
24.850556,120.957778,hamlet,白地粉,Baidifen,-2635122,PPL,populated place,GNS
24.850833,120.940556,hamlet,海子尾,Haiziwei,6431326,PPL,populated place,GNS
24.852222,120.946111,hamlet,新港村,Xingangcun,-2631222,PPL,populated place,GNS
24.860556,120.948333,hamlet,崁子脚,Kanzijiao,-2632350,PPL,populated place,GNS
24.861111,120.962778,hamlet,鳳岡,Fenggang,6431405,PPL,populated place,GNS
24.861667,120.957222,hamlet,崁頂,Kanding,-2632323,PPL,populated place,GNS
24.861944,120.971111,hamlet,後面,Houmian,-2630187,PPL,populated place,GNS
24.714444,121.073333,hamlet,分水龍,Fenshuilong,6438196,PPL,populated place,GNS
24.716111,121.063056,hamlet,水磜下,Shuiqixia,6438183,PPL,populated place,GNS
24.716944,121.053056,hamlet,下面盆,Xiamianpen,6438352,PPL,populated place,GNS
24.717222,121.079722,hamlet,直窩,Zhiwo,6438195,PPL,populated place,GNS
24.719444,121.059722,hamlet,面盆寮,Mianpenliao,-2634254,PPL,populated place,GNS
24.720278,121.073056,hamlet,劉屋,Liuwu,6438194,PPL,populated place,GNS
24.721389,121.055278,hamlet,面盆,Mianpen,6438351,PPL,populated place,GNS
24.721389,121.076111,hamlet,大窩,Dawo,6438369,PPL,populated place,GNS
24.7225,121.065556,hamlet,橫窩,Hengwo,6438184,PPL,populated place,GNS
24.723333,121.095,hamlet,下公舘,Xiagongguan,-2639703,PPLX,populated place,GNS
24.723611,121.092222,hamlet,上公舘,Shanggongguan,-2636417,PPLX,populated place,GNS
24.725833,121.068333,hamlet,上面盆寮,Shangmianpenliao,6438240,PPL,populated place,GNS
24.726389,121.051389,hamlet,溪源洞,Xiyuandong,6438185,PPL,populated place,GNS
24.728889,121.072778,hamlet,扛萌岡,Gangmenggang,6438370,PPL,populated place,GNS
24.730833,121.097778,hamlet,楓樹下,Fengshuxia,6438203,PPLX,populated place,GNS
24.731667,121.090833,hamlet,竹東,Zhudong,-2629129,PPL,populated place,GNS
24.708333,121.146111,hamlet,水頭屋,Shuitouwu,-2637287,PPL,populated place,GNS
24.710278,121.130278,hamlet,頭分林,Toufenlin,-2639206,PPL,populated place,GNS
24.716111,121.155,hamlet,合興,Hexing,6438378,PPL,populated place,GNS
24.716944,121.140556,hamlet,橫山,Hengshan,-2629989,PPL,populated place,GNS
24.696389,121.226389,hamlet,比麟,Bilin,-2635646,PPL,populated place,GNS
24.683333,121.220556,hamlet,吹上,Chuishang,-2628593,PPL,populated place,GNS
24.689167,121.219444,hamlet,竹圍,Zhuwei,-2638857,PPL,populated place,GNS
24.707222,121.206389,hamlet,樟樹園,Zhangshuyuan,6438274,PPL,populated place,GNS
24.864167,120.948056,hamlet,拔子窟,Baziku,-2635324,PPL,populated place,GNS
24.783333,120.966667,hamlet,,Yushiqi,-2641065,PPL,populated place,GNS
24.768056,120.948056,hamlet,韮菜坑,Jiucaikeng,6431318,PPL,populated place,GNS
24.817222,120.987222,hamlet,溪埔,Xibu,-2631478,PPL,populated place,GNS
24.820556,120.989444,hamlet,白沙屯,Baishatun,-2635095,PPL,populated place,GNS
24.832778,120.974722,hamlet,頂溪洲,Dingxizhou,-2638987,PPL,populated place,GNS
24.838611,120.985278,hamlet,馬麟厝,Malincuo,-2634003,PPL,populated place,GNS
24.838889,120.973056,hamlet,溪洲,Xizhou,-2630820,PPL,populated place,GNS
24.736667,121.072222,hamlet,樹杞林,Shuqilin,-2627936,PPL,populated place,GNS
24.7375,121.077778,hamlet,長窩亭,Changwoting,6438387,PPL,populated place,GNS
24.738611,121.076389,hamlet,油車窩,Youchewo,-2640878,PPL,populated place,GNS
24.738889,121.073889,hamlet,沙坑子,Shakengzi,6438191,PPL,populated place,GNS
24.740556,121.085,hamlet,橫窩,Hengwo,6438201,PPLX,populated place,GNS
24.775833,121.103056,hamlet,中坑,Zhongkeng,-2628837,PPL,populated place,GNS
24.784444,121.105833,hamlet,水坑,Shuikeng,-2637213,PPL,populated place,GNS
24.789444,121.113333,hamlet,西坑,Xikeng,6405231,PPL,populated place,GNS
24.79,121.098611,hamlet,鷄隆山,Jilongshan,6405230,PPL,populated place,GNS
24.805,121.102222,hamlet,南打鐵坑,Nandatiekeng,-2634489,PPL,populated place,GNS
24.808056,121.116667,hamlet,彭屋,Pengwu,6405358,PPL,populated place,GNS
24.810278,121.096944,hamlet,唐窩,Tangwo,6405209,PPL,populated place,GNS
24.810278,121.110278,hamlet,新打坑,Xindakeng,-2631355,PPL,populated place,GNS
24.811667,121.118889,hamlet,下南片,Xiananpian,-2634434,PPL,populated place,GNS
24.812222,121.093889,hamlet,內立,Neili,-2634765,PPL,populated place,GNS
24.816944,121.110833,hamlet,水汴頭,Shuibiantou,-2637258,PPL,populated place,GNS
24.818056,121.103056,hamlet,六股,Liugu,-2633482,PPL,populated place,GNS
24.705278,121.201389,hamlet,尖石,Jianshi,-2627738,PPL,populated place,GNS
24.7,121.198889,hamlet,北角,Beijiao,6438275,PPL,populated place,GNS
24.698889,121.193056,hamlet,沙坪,Shaping,-2631173,PPL,populated place,GNS
24.681667,121.184444,hamlet,馬胎,Matai,-2634101,PPL,populated place,GNS
24.691944,121.055278,hamlet,小分林,Xiaofenlin,-2638075,PPL,populated place,GNS
24.685278,121.100278,hamlet,燥樹排,Zaoshupai,-2639366,PPL,populated place,GNS
24.689722,121.104722,hamlet,水頭排,Shuitoupai,-2637285,PPL,populated place,GNS
24.695278,121.096667,hamlet,軟橋,Ruanqiao,-2632093,PPL,populated place,GNS
24.695278,121.116944,hamlet,田寮坑,Tianliaokeng,-2638825,PPL,populated place,GNS
24.698889,121.1075,hamlet,矺子,Tuozi,6438226,PPL,populated place,GNS
24.701389,121.111389,hamlet,南窩,Nanwo,6438222,PPL,populated place,GNS
24.701389,121.105278,hamlet,下坪,Xiaping,6438224,PPL,populated place,GNS
24.703889,121.114444,hamlet,北窩,Beiwo,6438223,PPL,populated place,GNS
24.705,121.106111,hamlet,田寮坑,Tianliaokeng,-2638818,PPL,populated place,GNS
24.708333,121.115833,hamlet,烏泥窟,Wuniku,6438225,PPL,populated place,GNS
24.71,121.097778,hamlet,員崠子,Yuandongzi,-2640849,PPL,populated place,GNS
24.711944,121.11,hamlet,下灣子,Xiawanzi,-2630766,PPL,populated place,GNS
24.713889,121.122222,hamlet,蔗廍,Zhepou,-2627300,PPL,populated place,GNS
24.845833,120.973056,hamlet,下溪洲,Xiaxizhou,-2630363,PPL,populated place,GNS
24.847222,120.976944,hamlet,麻園村,Mayuancun,-2634146,PPL,populated place,GNS
24.851389,120.991667,hamlet,溝背,Goubei,-2632568,PPL,populated place,GNS
24.8575,120.995833,hamlet,大眉,Damei,-2638143,PPL,populated place,GNS
24.811667,120.987778,hamlet,恭寮,Gongliao,6431385,PPL,populated place,GNS
24.73059,120.945391,hamlet,虎頭山,Hutoushan,10019454,PPL,populated place,GNS
24.730661,120.963886,hamlet,新城,Xincheng,-2630999,PPL,populated place,GNS
24.732843,120.944565,hamlet,下崎林,Xiaqilin,10019453,PPL,populated place,GNS
24.737482,120.976001,hamlet,東坑口,Dongkengkou,10019633,PPL,populated place,GNS
24.741475,120.96056,hamlet,崎林,Qilin,-2627935,PPL,populated place,GNS
24.747065,120.957834,hamlet,古車路,Guchelu,10019450,PPL,populated place,GNS
24.749444,120.942778,hamlet,龍角埤,Longjiaopi,6431428,PPL,populated place,GNS
24.75,120.980278,hamlet,榕樹崗,Rongshugang,6431272,PPL,populated place,GNS
24.753056,120.948889,hamlet,柯仔湳,Kezinan,6431429,PPL,populated place,GNS
24.821667,121.105556,hamlet,石坑仔,Shikengzi,6405153,PPL,populated place,GNS
24.8225,121.094167,hamlet,五分埔,Wufenbu,-2640495,PPL,populated place,GNS
24.825,121.113611,hamlet,老焿寮,Laogengliao,-2638373,PPL,populated place,GNS
24.825833,121.116667,hamlet,大旱坑,Dahankeng,-2637738,PPL,populated place,GNS
24.745556,121.104167,hamlet,上店子,Shangdianzi,6438233,PPL,populated place,GNS
24.749444,121.099722,hamlet,石壁潭,Shibitan,-2636986,PPL,populated place,GNS
24.756389,121.100556,hamlet,葉厝,Yecuo,6405234,PPL,populated place,GNS
24.755833,121.094167,hamlet,燥坑,Zaokeng,6405237,PPL,populated place,GNS
24.762778,121.091667,hamlet,新鳳,Xinfeng,6405385,PPL,populated place,GNS
24.766111,121.088889,hamlet,柯仔林,Kezilin,-2632548,PPL,populated place,GNS
24.745833,121.0825,hamlet,五豐,Wufeng,6438190,PPLX,populated place,GNS
24.715833,121.124722,hamlet,三崁店,Sankandian,6438228,PPL,populated place,GNS
24.716111,121.107222,hamlet,崁頭,Kantou,6438229,PPL,populated place,GNS
24.716667,121.116667,hamlet,,Huangzhitou,-2631701,PPL,populated place,GNS
24.6475,121.1275,hamlet,河頭,Hetou,6438216,PPL,populated place,GNS
24.677222,121.135,hamlet,尖筆窩,Jianbiwo,-2627693,PPL,populated place,GNS
24.673056,121.126944,hamlet,南昌,Nanchang,-2633104,PPL,populated place,GNS
24.659722,121.121944,hamlet,莊厝,Zhuangcuo,6438362,PPL,populated place,GNS
24.663333,121.120556,hamlet,上坪,Shangping,-2636441,PPL,populated place,GNS
24.665556,121.118333,hamlet,瑞峯,Ruifeng,6438221,PPL,populated place,GNS
24.671944,121.113333,hamlet,二十分,Ershifen,-2629292,PPL,populated place,GNS
24.653056,121.105556,hamlet,中央寮,Zhongyangliao,-2629132,PPL,populated place,GNS
24.665556,121.106111,hamlet,薯園,Shuyuan,-2637373,PPL,populated place,GNS
24.656389,121.101667,hamlet,協寮,Xieliao,-2630857,PPL,populated place,GNS
24.661667,121.101111,hamlet,大窩浪,Dawolang,-2638633,PPL,populated place,GNS
24.666667,121.1,hamlet,,Wolang,-2640280,PPL,populated place,GNS
24.6775,121.096111,hamlet,紙寮,Zhiliao,6438208,PPL,populated place,GNS
24.650278,121.086389,hamlet,分水龍,Fenshuilong,-2629642,PPL,populated place,GNS
24.755278,120.946667,hamlet,茄苳湖,Qiedonghu,-2627619,PPL,populated place,GNS
24.756944,120.947778,hamlet,香山坑,Xiangshankeng,6431426,PPL,populated place,GNS
24.760556,120.984444,hamlet,湳坑仔,Nankengzi,6431444,PPL,populated place,GNS
24.763889,120.982778,hamlet,水尾溝,Shuiweigou,6431395,PPL,populated place,GNS
24.766389,120.96,hamlet,石渣崙,Shizhalun,-2636913,PPL,populated place,GNS
24.766667,120.966667,hamlet,,Qingcaohu,-2628105,PPL,populated place,GNS
24.766944,120.985833,hamlet,老隘,Lao'ai,6431438,PPL,populated place,GNS
24.768056,120.979444,hamlet,李厝,Licuo,6431399,PPL,populated place,GNS
24.768889,121.004444,hamlet,大崎頭,Daqitou,-2637597,PPL,populated place,GNS
24.777778,120.984167,hamlet,下路北,Xialubei,6431396,PPL,populated place,GNS
24.782778,120.989444,hamlet,埔尾,Buwei,6431397,PPL,populated place,GNS
24.783333,120.983333,hamlet,,Huozangchang,-2631884,PPL,populated place,GNS
24.760833,121.084444,hamlet,上新鳳,Shangxinfeng,6405386,PPL,populated place,GNS
24.755556,121.070278,hamlet,四重埔,Sichongbu,6405228,PPL,populated place,GNS
24.75,121.066667,hamlet,,Fanshezi,-2629403,PPL,populated place,GNS
24.757778,121.064444,hamlet,三重埔,Sanchongbu,-2636073,PPL,populated place,GNS
24.76,121.064444,hamlet,三角城,Sanjiaocheng,-2636021,PPL,populated place,GNS
24.762222,121.061389,hamlet,托盤山,Tuopanshan,-2639164,PPL,populated place,GNS
24.766667,121.055556,hamlet,二重埔,Erchongbu,-2629248,PPL,populated place,GNS
24.840556,121.121944,hamlet,大茅埔,Damaobu,-2638132,PPL,populated place,GNS
24.844722,121.124167,hamlet,黃梨園,Huangliyuan,-2631714,PPL,populated place,GNS
24.847778,121.114722,hamlet,照門,Zhaomen,-2627143,PPL,populated place,GNS
24.85,121.133333,hamlet,,Qixia,-2627859,PPL,populated place,GNS
24.851667,121.121944,hamlet,樟樹頭,Zhangshutou,6405147,PPL,populated place,GNS
24.854444,121.115833,hamlet,照鏡,Zhaojing,-2627125,PPL,populated place,GNS
24.861667,121.119167,hamlet,石門,Shimen,-2636875,PPL,populated place,GNS
24.862222,121.129167,hamlet,清水,Qingshui,-2628068,PPL,populated place,GNS
24.832778,121.188611,hamlet,雞籠坑,Jilongkeng,-2627953,PPL,populated place,GNS
24.649444,121.285278,hamlet,高臺,Gaotai,-2632425,PPL,populated place,GNS
24.660556,121.282778,hamlet,下宇老,Xiayulao,-2640435,PPL,populated place,GNS
24.639167,121.275,hamlet,田埔,Tianbu,-2629605,PPL,populated place,GNS
24.667222,121.2825,hamlet,上宇老,Shangyulao,-2626926,PPL,populated place,GNS
24.670833,121.266667,hamlet,道下,Daoxia,-2638288,PPL,populated place,GNS
24.668611,121.2075,hamlet,錦屏,Jinping,-2630496,PPL,populated place,GNS
24.678056,121.208056,hamlet,梅花,Meihua,6438276,PPL,populated place,GNS
24.671944,121.195278,hamlet,馬胎,Matai,-2634100,PPL,populated place,GNS
24.659167,121.165833,hamlet,天湖,Tianhu,-2638788,PPL,populated place,GNS
24.793889,121.010278,hamlet,埔頂,Buding,-2635933,PPL,populated place,GNS
24.794167,121.001389,hamlet,赤土崎,Chituqi,6431372,PPL,populated place,GNS
24.826667,120.998889,hamlet,下斗崙,Xiadoulun,-2630748,PPL,populated place,GNS
24.827778,121.006944,hamlet,中斗崙,Zhongdoulun,-2628980,PPL,populated place,GNS
24.828611,121.026389,hamlet,田厝,Tiancuo,6405270,PPL,populated place,GNS
24.830278,121,hamlet,斗崙,Doulun,-2630749,PPL,populated place,GNS
24.831667,121.024167,hamlet,泉州厝,Quanzhoucuo,-2628492,PPL,populated place,GNS
24.835,121.024444,hamlet,豆子埔,Douzibu,-2639253,PPL,populated place,GNS
24.835833,121.020833,hamlet,水壠,Shuilong,6405161,PPL,populated place,GNS
24.810833,121.206944,hamlet,,Qibadong,6405247,PPL,populated place,GNS
24.805556,121.193333,hamlet,牛欄河,Niulanhe,6405416,PPL,populated place,GNS
24.825,121.1925,hamlet,高源,Gaoyuan,6405028,PPL,populated place,GNS
24.828889,121.187778,hamlet,橫岡下,Henggangxia,-2629953,PPL,populated place,GNS
24.812778,121.175,hamlet,拱子溝,Gongzigou,-2632044,PPL,populated place,GNS
24.824167,121.173333,hamlet,水坑,Shuikeng,-2638581,PPL,populated place,GNS
24.81,121.157778,hamlet,深坑子,Shenkengzi,6405142,PPL,populated place,GNS
24.804444,121.153333,hamlet,茅子埔,Maozibu,-2634084,PPL,populated place,GNS
24.824167,121.158056,hamlet,大東坑,Dadongkeng,6402313,PPL,populated place,GNS
24.830833,121.137222,hamlet,小東坑,Xiaodongkeng,-2630634,PPL,populated place,GNS
24.806111,121.125833,hamlet,下橫坑,Xiahengkeng,6405374,PPL,populated place,GNS
24.823333,121.130556,hamlet,大東坑,Dadongkeng,-2638582,PPL,populated place,GNS
24.815278,121.125,hamlet,石岡子,Shigangzi,-2636822,PPL,populated place,GNS
24.607222,121.121111,hamlet,中興,Zhongxing,-2628783,PPL,populated place,GNS
24.6275,121.146389,hamlet,竹林,Zhulin,-2628643,PPL,populated place,GNS
24.633333,121.133333,hamlet,,Guizeshe,-2632790,PPL,populated place,GNS
24.639722,121.131389,hamlet,南口,Nankou,-2634519,PPL,populated place,GNS
24.6475,121.151389,hamlet,花園,Huayuan,-2631751,PPL,populated place,GNS
24.651944,121.142222,hamlet,比來,Bilai,-2635640,PPL,populated place,GNS
24.659167,121.134722,hamlet,下比來,Xiabilai,6438250,PPL,populated place,GNS
24.661667,121.145,hamlet,上比來,Shangbilai,6438249,PPL,populated place,GNS
24.630556,121.119722,hamlet,五峯,Wufeng,-2636902,PPL,populated place,GNS
